city,lat,lng,country,iso3,admin_name,capital,population,population_estimated,population_category
Tokyo,35.6897,139.6922,Japan,JPN,Tōkyō,primary,37732000,False,Mega
Jakarta,-6.175,106.8275,Indonesia,IDN,Jakarta,primary,33756000,False,Mega
Delhi,28.61,77.23,India,IND,Delhi,admin,32226000,False,Mega
Guangzhou,23.13,113.26,China,CHN,Guangdong,admin,26940000,False,Mega
Mumbai,19.0761,72.8775,India,IND,Mahārāshtra,admin,24973000,False,Mega
Manila,14.5958,120.9772,Philippines,PHL,Manila,primary,24922000,False,Mega
Shanghai,31.2286,121.4747,China,CHN,Shanghai,admin,24073000,False,Mega
São Paulo,-23.55,-46.6333,Brazil,BRA,São Paulo,admin,23086000,False,Mega
Seoul,37.56,126.99,"Korea, South",KOR,Seoul,primary,23016000,False,Mega
Mexico City,19.4333,-99.1333,Mexico,MEX,Ciudad de México,primary,21804000,False,Mega
Cairo,30.0444,31.2358,Egypt,EGY,Al Qāhirah,primary,20296000,False,Mega
New York,40.6943,-73.9249,United States,USA,New York,Not Capital,18908608,False,Mega
Dhaka,23.7639,90.3889,Bangladesh,BGD,Dhaka,primary,18627000,False,Mega
Beijing,39.9067,116.3975,China,CHN,Beijing,primary,18522000,False,Mega
Kolkāta,22.5675,88.37,India,IND,West Bengal,admin,18502000,False,Mega
Bangkok,13.7525,100.4942,Thailand,THA,Krung Thep Maha Nakhon,primary,18007000,False,Mega
Shenzhen,22.5415,114.0596,China,CHN,Guangdong,minor,17619000,False,Mega
Moscow,55.7558,37.6172,Russia,RUS,Moskva,primary,17332000,False,Mega
Buenos Aires,-34.6033,-58.3817,Argentina,ARG,"Buenos Aires, Ciudad Autónoma de",primary,16710000,False,Mega
Lagos,6.455,3.3841,Nigeria,NGA,Lagos,minor,16637000,False,Mega
Istanbul,41.0136,28.955,Turkey,TUR,İstanbul,admin,16079000,False,Mega
Karachi,24.86,67.01,Pakistan,PAK,Sindh,admin,15738000,False,Mega
Bangalore,12.9789,77.5917,India,IND,Karnātaka,admin,15386000,False,Mega
Ho Chi Minh City,10.7756,106.7019,Vietnam,VNM,Hồ Chí Minh,admin,15136000,False,Mega
Ōsaka,34.6939,135.5022,Japan,JPN,Ōsaka,admin,15126000,False,Mega
Chengdu,30.66,104.0633,China,CHN,Sichuan,admin,14645000,False,Mega
Tehran,35.6892,51.3889,Iran,IRN,Tehrān,primary,14148000,False,Mega
Kinshasa,-4.3219,15.3119,Congo (Kinshasa),COD,Kinshasa,primary,12836000,False,Mega
Rio de Janeiro,-22.9111,-43.2056,Brazil,BRA,Rio de Janeiro,admin,12592000,False,Mega
Chennai,13.0825,80.275,India,IND,Tamil Nādu,admin,12395000,False,Mega
Xi’an,34.2611,108.9422,China,CHN,Shaanxi,admin,12328000,False,Mega
Lahore,31.5497,74.3436,Pakistan,PAK,Punjab,admin,12306000,False,Mega
Chongqing,29.5637,106.5504,China,CHN,Chongqing,admin,12135000,False,Mega
Los Angeles,34.1141,-118.4068,United States,USA,California,Not Capital,11922389,False,Mega
Baoding,38.874,115.464,China,CHN,Hebei,minor,11544036,False,Mega
London,51.5072,-0.1275,United Kingdom,GBR,"London, City of",primary,11262000,False,Mega
Paris,48.8567,2.3522,France,FRA,Île-de-France,primary,11060000,False,Mega
Linyi,35.1038,118.3564,China,CHN,Shandong,Not Capital,11018365,False,Mega
Dongguan,23.021,113.752,China,CHN,Guangdong,minor,10646000,False,Mega
Hyderābād,17.3617,78.4747,India,IND,Telangāna,admin,10494000,False,Mega
Tianjin,39.1336,117.2054,China,CHN,Tianjin,admin,10368000,False,Mega
Lima,-12.06,-77.0375,Peru,PER,Lima,primary,10320000,False,Mega
Wuhan,30.5934,114.3046,China,CHN,Hubei,admin,10251000,False,Mega
Nanyang,32.9987,112.5292,China,CHN,Henan,Not Capital,9713112,False,Large
Hangzhou,30.267,120.153,China,CHN,Zhejiang,admin,9523000,False,Large
Foshan,23.0214,113.1216,China,CHN,Guangdong,minor,9498863,False,Large
Nagoya,35.1833,136.9,Japan,JPN,Aichi,admin,9197000,False,Large
Tongshan,34.204,117.284,China,CHN,Jiangsu,minor,9083790,False,Large
Luanda,-8.8383,13.2344,Angola,AGO,Luanda,primary,9051000,False,Large
Zhoukou,33.625,114.6418,China,CHN,Henan,minor,9026015,False,Large
Ganzhou,25.831,114.933,China,CHN,Jiangxi,minor,8970014,False,Large
Kuala Lumpur,3.1478,101.6953,Malaysia,MYS,Kuala Lumpur,primary,8911000,False,Large
Heze,35.2343,115.4796,China,CHN,Shandong,minor,8795939,False,Large
Quanzhou,24.8744,118.6757,China,CHN,Fujian,minor,8782285,False,Large
Johannesburg,-26.2044,28.0456,South Africa,ZAF,Gauteng,admin,8500000,False,Large
Chicago,41.8375,-87.6866,United States,USA,Illinois,Not Capital,8497759,False,Large
Nanjing,32.0608,118.7789,China,CHN,Jiangsu,admin,8422000,False,Large
Jining,35.4151,116.5871,China,CHN,Shandong,Not Capital,8357897,False,Large
Hanoi,21.0,105.85,Vietnam,VNM,Hà Nội,primary,8246600,False,Large
Pune,18.5203,73.8567,India,IND,Mahārāshtra,Not Capital,8231000,False,Large
Fuyang,32.89,115.814,China,CHN,Anhui,Not Capital,8200264,False,Large
Ahmedabad,23.0225,72.5714,India,IND,Gujarāt,minor,8009000,False,Large
Bogotá,4.7111,-74.0722,Colombia,COL,Bogotá,primary,7968095,False,Large
Shenyang,41.8025,123.4281,China,CHN,Liaoning,admin,7964000,False,Large
Dar es Salaam,-6.8161,39.2803,Tanzania,TZA,Dar es Salaam,admin,7962000,False,Large
Khartoum,15.6,32.5,Sudan,SDN,Khartoum,primary,7869000,False,Large
Shangqiu,34.415,115.656,China,CHN,Henan,Not Capital,7816831,False,Large
Hong Kong,22.3,114.2,Hong Kong,HKG,香港 Hong Kong,primary,7450000,False,Large
Cangzhou,38.3047,116.8387,China,CHN,Hebei,minor,7300783,False,Large
Riyadh,24.6333,46.7167,Saudi Arabia,SAU,Ar Riyāḑ,primary,7237000,False,Large
Santiago,-33.4372,-70.6506,Chile,CHL,Región Metropolitana,primary,7171000,False,Large
Xingtai,37.0717,114.5048,China,CHN,Hebei,Not Capital,7111106,False,Large
Zhumadian,33.014,114.022,China,CHN,Henan,Not Capital,7008427,False,Large
Chattogram,22.335,91.8325,Bangladesh,BGD,Chattogram,admin,7000000,False,Large
Surabaya,-7.2458,112.7378,Indonesia,IDN,Jawa Timur,admin,6998000,False,Large
Zhanjiang,21.2701,110.3575,China,CHN,Guangdong,minor,6981236,False,Large
Bijie,27.284,105.292,China,CHN,Guizhou,Not Capital,6899636,False,Large
Yancheng,33.3482,120.1626,China,CHN,Jiangsu,minor,6709629,False,Large
Hengyang,26.894,112.572,China,CHN,Hunan,Not Capital,6645243,False,Large
Zunyi,27.722,107.031,China,CHN,Guizhou,Not Capital,6606675,False,Large
Shaoyang,27.2395,111.4679,China,CHN,Hunan,Not Capital,6563520,False,Large
Sūrat,21.1702,72.8311,India,IND,Gujarāt,Not Capital,6538000,False,Large
Shangrao,28.4551,117.9431,China,CHN,Jiangxi,minor,6435300,False,Large
Xinyang,32.149,114.091,China,CHN,Henan,Not Capital,6234401,False,Large
Madrid,40.4169,-3.7033,Spain,ESP,Madrid,primary,6211000,False,Large
Baghdad,33.3153,44.3661,Iraq,IRQ,Baghdād,primary,6183000,False,Large
Maoming,21.6627,110.9255,China,CHN,Guangdong,minor,6174050,False,Large
Jieyang,23.551,116.3727,China,CHN,Guangdong,minor,6089400,False,Large
Miami,25.784,-80.2101,United States,USA,Florida,Not Capital,6080145,False,Large
Singapore,1.3,103.8,Singapore,SGP,Singapore,primary,5983000,False,Large
Houston,29.786,-95.3885,United States,USA,Texas,Not Capital,5970127,False,Large
Liaocheng,36.4559,115.9852,China,CHN,Shandong,minor,5952128,False,Large
Huanggang,30.4537,114.8724,China,CHN,Hubei,minor,5882719,False,Large
Dalian,38.9,121.6,China,CHN,Liaoning,Not Capital,5871474,False,Large
Dallas,32.7935,-96.7667,United States,USA,Texas,Not Capital,5830932,False,Large
Qingdao,36.0669,120.3827,China,CHN,Shandong,minor,5818255,False,Large
Yulin,22.654,110.181,China,CHN,Guangxi,minor,5796766,False,Large
Douala,4.05,9.7,Cameroon,CMR,Littoral,admin,5768400,False,Large
Qujing,25.491,103.796,China,CHN,Yunnan,Not Capital,5765775,False,Large
Nangandao,35.3036,113.9268,China,CHN,Henan,minor,5708191,False,Large
Philadelphia,40.0077,-75.1339,United States,USA,Pennsylvania,Not Capital,5683533,False,Large
Pudong,31.2347,121.5064,China,CHN,Shanghai,minor,5681512,False,Large
Toronto,43.7417,-79.3733,Canada,CAN,Ontario,admin,5647656,False,Large
Zhengzhou,34.764,113.684,China,CHN,Henan,admin,5621593,False,Large
Dezhou,37.436,116.359,China,CHN,Shandong,minor,5611194,False,Large
Nanchong,30.8372,106.1106,China,CHN,Sichuan,minor,5607565,False,Large
Jinan,36.6702,117.0207,China,CHN,Shandong,admin,5606374,False,Large
Giza,29.987,31.2118,Egypt,EGY,Al Jīzah,admin,5598402,False,Large
Nairobi,-1.2864,36.8172,Kenya,KEN,Nairobi City,primary,5545000,False,Large
Guadalajara,20.6767,-103.3475,Mexico,MEX,Jalisco,admin,5525000,False,Large
Ankara,39.93,32.85,Turkey,TUR,Ankara,primary,5503985,False,Large
Tai’an,36.202,117.087,China,CHN,Shandong,Not Capital,5472217,False,Large
Langfang,39.5383,116.6835,China,CHN,Hebei,minor,5464087,False,Large
Dazhou,31.2093,107.4678,China,CHN,Sichuan,minor,5385422,False,Large
Saint Petersburg,59.9375,30.3086,Russia,RUS,Sankt-Peterburg,admin,5384342,False,Large
Monterrey,25.6667,-100.3,Mexico,MEX,Nuevo León,admin,5341171,False,Large
Belo Horizonte,-19.9167,-43.9333,Brazil,BRA,Minas Gerais,admin,5328000,False,Large
Suzhou,33.6333,116.9683,China,CHN,Anhui,Not Capital,5324476,False,Large
Yongzhou,26.42,111.613,China,CHN,Hunan,Not Capital,5289824,False,Large
Changde,29.031,111.699,China,CHN,Hunan,minor,5279102,False,Large
Xiangyang,32.01,112.122,China,CHN,Hubei,minor,5260951,False,Large
Rangoon,16.795,96.16,Burma,MMR,Yangon,primary,5209541,False,Large
Atlanta,33.7628,-84.422,United States,USA,Georgia,admin,5180179,False,Large
Washington,38.9047,-77.0163,United States,USA,District of Columbia,primary,5116378,False,Large
Zhaotong,27.338,103.717,China,CHN,Yunnan,Not Capital,5092611,False,Large
Zhangzhou,24.513,117.647,China,CHN,Fujian,minor,5054328,False,Large
Melbourne,-37.8142,144.9631,Australia,AUS,Victoria,admin,5031195,False,Large
Yichun,27.816,114.417,China,CHN,Jiangxi,minor,5007702,False,Large
Bozhou,33.8626,115.7742,China,CHN,Anhui,Not Capital,4996844,False,Large
Suqian,33.9331,118.2831,China,CHN,Jiangsu,Not Capital,4986192,False,Large
Abidjan,5.3167,-4.0333,Côte d’Ivoire,CIV,Abidjan,primary,4980000,False,Large
Ji’an,27.0912,114.9668,China,CHN,Jiangxi,minor,4956600,False,Large
Guilin,25.275,110.296,China,CHN,Guangxi,minor,4931137,False,Large
Pingdingshan,33.735,113.2999,China,CHN,Henan,Not Capital,4904701,False,Large
Berlin,52.52,13.405,Germany,DEU,Berlin,primary,4890363,False,Large
Alexandria,31.1975,29.8925,Egypt,EGY,Al Iskandarīyah,admin,4870000,False,Large
Mianyang,31.468,104.679,China,CHN,Sichuan,minor,4868243,False,Large
Sydney,-33.8678,151.21,Australia,AUS,New South Wales,admin,4840600,False,Large
Huanglongsi,34.795,114.345,China,CHN,Henan,Not Capital,4824016,False,Large
Barcelona,41.3828,2.1769,Spain,ESP,Catalonia,admin,4800000,False,Large
Yuncheng,35.0267,111.007,China,CHN,Shanxi,Not Capital,4774508,False,Large
Cape Town,-33.9253,18.4239,South Africa,ZAF,Western Cape,primary,4770313,False,Large
Changsha,28.228,112.939,China,CHN,Hunan,admin,4766296,False,Large
Jeddah,21.5433,39.1728,Saudi Arabia,SAU,Makkah al Mukarramah,Not Capital,4697000,False,Large
Weinan,34.5206,109.471,China,CHN,Shaanxi,minor,4688744,False,Large
Chenzhou,25.77,113.016,China,CHN,Hunan,minor,4667134,False,Large
Jiangmen,22.5789,113.0815,China,CHN,Guangdong,minor,4630300,False,Large
Jiujiang,29.661,115.954,China,CHN,Jiangxi,minor,4600276,False,Large
Xinpu,34.5966,119.2214,China,CHN,Jiangsu,minor,4599360,False,Large
Yibin,28.752,104.643,China,CHN,Sichuan,minor,4588804,False,Large
Huaihua,27.5698,110.0016,China,CHN,Hunan,Not Capital,4587594,False,Large
Yangzhou,32.3912,119.4363,China,CHN,Jiangsu,Not Capital,4559797,False,Large
Taizhou,32.4567,119.9229,China,CHN,Jiangsu,minor,4512762,False,Large
Kunming,25.0464,102.7094,China,CHN,Yunnan,admin,4422686,False,Large
Yiyang,28.5549,112.356,China,CHN,Hunan,Not Capital,4413800,False,Large
Changchun,43.897,125.326,China,CHN,Jilin,admin,4408154,False,Large
Lu’an,31.736,116.52,China,CHN,Anhui,minor,4393699,False,Large
Jiangguanchi,34.0244,113.8201,China,CHN,Henan,minor,4379998,False,Large
Meizhou,24.289,116.122,China,CHN,Guangdong,minor,4378800,False,Large
Ürümqi,43.8225,87.6125,China,CHN,Xinjiang,admin,4335017,False,Large
Suzhou,31.3,120.6194,China,CHN,Jiangsu,minor,4330000,False,Large
Boston,42.3188,-71.0852,United States,USA,Massachusetts,admin,4328315,False,Large
İzmir,38.42,27.14,Turkey,TUR,İzmir,admin,4320519,False,Large
Guigang,23.112,109.599,China,CHN,Guangxi,minor,4316262,False,Large
Shantou,23.354,116.682,China,CHN,Guangdong,minor,4312192,False,Large
Kabul,34.5253,69.1783,Afghanistan,AFG,Kābul,primary,4273156,False,Large
Xiaoganzhan,30.918,113.957,China,CHN,Hubei,Not Capital,4270371,False,Large
Bamako,12.6392,-8.0028,Mali,MLI,Bamako,primary,4227569,False,Large
Luzhou,28.871,105.442,China,CHN,Sichuan,minor,4218427,False,Large
Hefei,31.8206,117.2273,China,CHN,Anhui,admin,4216940,False,Large
Hengshui,37.739,115.669,China,CHN,Hebei,minor,4212933,False,Large
Fortaleza,-3.7275,-38.5275,Brazil,BRA,Ceará,admin,4167996,False,Large
Anqing,30.5318,117.1153,China,CHN,Anhui,minor,4165284,False,Large
Liuzhou,24.3264,109.4281,China,CHN,Guangxi,minor,4157934,False,Large
Zhangjiakou,40.769,114.886,China,CHN,Hebei,minor,4118908,False,Large
Zhaoqing,23.05,112.4667,China,CHN,Guangdong,minor,4113594,False,Large
Shijiazhuang,38.0425,114.51,China,CHN,Hebei,admin,4098243,False,Large
Ningbo,29.8603,121.6245,China,CHN,Zhejiang,minor,4087523,False,Large
Qiqihar,47.3549,123.9182,China,CHN,Heilongjiang,minor,4067489,False,Large
Phoenix,33.5722,-112.0892,United States,USA,Arizona,admin,4064275,False,Large
Fuzhou,27.949,116.358,China,CHN,Jiangxi,Not Capital,4047200,False,Large
Chifeng,42.257,118.888,China,CHN,Inner Mongolia,minor,4035967,False,Large
Xiaoxita,30.692,111.287,China,CHN,Hubei,minor,4017607,False,Large
Amman,31.9497,35.9328,Jordan,JOR,Al ‘Āşimah,primary,4007526,False,Large
Chuzhou,32.256,118.333,China,CHN,Anhui,Not Capital,3987054,False,Large
Linfen,36.088,111.519,China,CHN,Shanxi,Not Capital,3976481,False,Large
Qingyuan,23.682,113.056,China,CHN,Guangdong,minor,3969473,False,Large
Xianyang,34.3299,108.7088,China,CHN,Shaanxi,minor,3959842,False,Large
Loudi,27.6998,111.9944,China,CHN,Hunan,Not Capital,3931800,False,Large
Binzhou,37.383,117.971,China,CHN,Shandong,Not Capital,3928568,False,Large
Zhuzhou,27.829,113.133,China,CHN,Hunan,minor,3902738,False,Large
Taiyuan,37.8704,112.5497,China,CHN,Shanxi,admin,3875053,False,Large
Nanning,22.8167,108.3275,China,CHN,Guangxi,admin,3837978,False,Large
Harbin,45.7576,126.6409,China,CHN,Heilongjiang,admin,3830000,False,Large
Abuja,9.0667,7.4833,Nigeria,NGA,Federal Capital Territory,primary,3770000,False,Large
Yokohama,35.4442,139.6381,Japan,JPN,Kanagawa,admin,3757630,False,Large
Suihua,46.654,126.969,China,CHN,Heilongjiang,minor,3756167,False,Large
Zaozhuang,34.8109,117.3238,China,CHN,Shandong,Not Capital,3729140,False,Large
Detroit,42.3834,-83.1024,United States,USA,Michigan,Not Capital,3725908,False,Large
Xiamen,24.4796,118.0889,China,CHN,Fujian,minor,3707090,False,Large
Neijiang,29.5802,105.058,China,CHN,Sichuan,minor,3702847,False,Large
Montréal,45.5089,-73.5617,Canada,CAN,Quebec,Not Capital,3675219,False,Large
Fuzhou,26.0743,119.2964,China,CHN,Fujian,admin,3671192,False,Large
Baicheng,23.903,106.619,China,CHN,Guangxi,minor,3669400,False,Large
Wuhu,31.3526,118.4331,China,CHN,Anhui,minor,3644420,False,Large
Yulinshi,38.2858,109.7341,China,CHN,Shaanxi,Not Capital,3634750,False,Large
Medan,3.5894,98.6739,Indonesia,IDN,Sumatera Utara,admin,3632000,False,Large
Wenzhou,27.9938,120.6993,China,CHN,Zhejiang,Not Capital,3604446,False,Large
Changzhou,31.811,119.974,China,CHN,Jiangsu,minor,3601079,False,Large
Puyang,35.7627,115.0292,China,CHN,Henan,minor,3598740,False,Large
Jiaozuo,35.2157,113.2419,China,CHN,Henan,Not Capital,3590700,False,Large
Nanchang,28.683,115.858,China,CHN,Jiangxi,admin,3576547,False,Large
Seattle,47.6211,-122.3244,United States,USA,Washington,Not Capital,3561397,False,Large
Ibadan,7.3964,3.9167,Nigeria,NGA,Oyo,admin,3552000,False,Large
Casablanca,33.5333,-7.5833,Morocco,MAR,Casablanca-Settat,admin,3499000,False,Large
Kumasi,6.7,-1.625,Ghana,GHA,Ashanti,admin,3490030,False,Large
Deyang,31.127,104.398,China,CHN,Sichuan,minor,3456161,False,Large
Busan,35.18,129.075,"Korea, South",KOR,Busan,admin,3453198,False,Large
Hohhot,40.842,111.749,China,CHN,Inner Mongolia,admin,3446100,False,Large
Hechi,24.693,108.085,China,CHN,Guangxi,minor,3417945,False,Large
Algiers,36.7539,3.0589,Algeria,DZA,Alger,primary,3415811,False,Large
Tangshan,39.6294,118.1739,China,CHN,Hebei,Not Capital,3399231,False,Large
Shiyan,32.629,110.7987,China,CHN,Hubei,minor,3398000,False,Large
Lucknow,26.85,80.95,India,IND,Uttar Pradesh,admin,3382000,False,Large
Mashhad,36.3264,59.5433,Iran,IRN,Khorāsān-e Raẕavī,admin,3372090,False,Large
San Francisco,37.7558,-122.4449,United States,USA,California,Not Capital,3364979,False,Large
Boankra,6.6944,-1.4028,Ghana,GHA,Ashanti,Not Capital,3348000,False,Large
Dubai,25.2631,55.2972,United Arab Emirates,ARE,Dubayy,admin,3331420,False,Large
Anshan,41.108,122.994,China,CHN,Liaoning,Not Capital,3325372,False,Large
Baojishi,34.363,107.238,China,CHN,Shaanxi,Not Capital,3321853,False,Large
Qinzhou,21.981,108.654,China,CHN,Guangxi,minor,3304400,False,Large
Guiyang,26.647,106.63,China,CHN,Guizhou,admin,3299724,False,Large
Bengbu,32.917,117.389,China,CHN,Anhui,Not Capital,3296408,False,Large
Bazhou,31.868,106.748,China,CHN,Sichuan,minor,3283148,False,Large
Suining,30.533,105.593,China,CHN,Sichuan,minor,3252619,False,Large
Wuxi,31.491,120.312,China,CHN,Jiangsu,minor,3245179,False,Large
Kotla Qasim Khan,32.5833,73.75,Pakistan,PAK,Punjab,Not Capital,3219375,False,Large
Hanzhong,33.0664,107.0232,China,CHN,Shaanxi,Not Capital,3211462,False,Large
Putian,25.4526,119.0078,China,CHN,Fujian,minor,3210714,False,Large
Zhenjiang,32.188,119.424,China,CHN,Jiangsu,minor,3210418,False,Large
Guang’an,30.4564,106.6326,China,CHN,Sichuan,minor,3205476,False,Large
Faisalabad,31.4167,73.0911,Pakistan,PAK,Punjab,minor,3203846,False,Large
Changzhi,36.195,113.117,China,CHN,Shanxi,minor,3180884,False,Large
Tongren,27.7316,109.1895,China,CHN,Guizhou,Not Capital,3168800,False,Large
Leshan,29.552,103.766,China,CHN,Sichuan,Not Capital,3160168,False,Large
Santa Cruz de la Sierra,-17.7892,-63.1975,Bolivia,BOL,Santa Cruz,Not Capital,3151676,False,Large
Qinhuangdao,39.8882,119.5202,China,CHN,Hebei,Not Capital,3146300,False,Large
Jaipur,26.9,75.8,India,IND,Rājasthān,admin,3073350,False,Large
Xinzhou,38.416,112.734,China,CHN,Shanxi,minor,3067501,False,Large
Lanzhou,36.0606,103.8268,China,CHN,Gansu,admin,3067141,False,Large
Wuzhou,23.4767,111.279,China,CHN,Guangxi,minor,3061100,False,Large
Athens,37.9842,23.7281,Greece,GRC,Attikí,primary,3059764,False,Large
San Diego,32.8313,-117.1222,United States,USA,California,Not Capital,3046560,False,Large
Addis Ababa,9.03,38.74,Ethiopia,ETH,Ādīs Ābeba,primary,3041002,False,Large
Taichung,24.1439,120.6794,Taiwan,TWN,Taichung,admin,3033885,False,Large
Huainan,32.6314,117.0194,China,CHN,Anhui,Not Capital,3033528,False,Large
Guatemala City,14.6133,-90.5353,Guatemala,GTM,Guatemala,primary,3014000,False,Large
Kuwait City,29.3697,47.9783,Kuwait,KWT,Al ‘Āşimah,primary,3000000,False,Large
Budapest,47.4925,19.0514,Hungary,HUN,Budapest,primary,2997958,False,Large
Qincheng,34.5809,105.7311,China,CHN,Gansu,minor,2984659,False,Large
Rizhao,35.417,119.527,China,CHN,Shandong,minor,2968365,False,Large
Quezon City,14.65,121.0475,Philippines,PHL,Quezon,admin,2960048,False,Large
Sanaa,15.3483,44.2064,Yemen,YEM,Amānat al ‘Āşimah,primary,2957000,False,Large
Tashkent,41.3111,69.2797,Uzbekistan,UZB,Toshkent,primary,2956384,False,Large
Kyiv,50.45,30.5233,Ukraine,UKR,"Kyiv, Misto",primary,2952301,False,Large
Meishan,30.0771,103.8484,China,CHN,Sichuan,Not Capital,2950545,False,Large
Incheon,37.4833,126.6333,"Korea, South",KOR,Incheon,admin,2936117,False,Large
Birmingham,52.48,-1.9025,United Kingdom,GBR,Birmingham,Not Capital,2919600,False,Large
Ningde,26.6662,119.5477,China,CHN,Fujian,minor,2910000,False,Large
Zhongshan,22.517,113.3925,China,CHN,Guangdong,minor,2909633,False,Large
Weihai,37.5133,122.1205,China,CHN,Shandong,minor,2906548,False,Large
Bursa,40.1833,29.05,Turkey,TUR,Bursa,admin,2901396,False,Large
Minneapolis,44.9635,-93.2678,United States,USA,Minnesota,Not Capital,2892569,False,Large
Mbuji-Mayi,-6.15,23.6,Congo (Kinshasa),COD,Kasaï Oriental,admin,2892000,False,Large
Haikou,20.0186,110.3488,China,CHN,Hainan,admin,2873358,False,Large
Tongliao,43.654,122.243,China,CHN,Inner Mongolia,minor,2873168,False,Large
Chaoyang,41.571,120.453,China,CHN,Liaoning,Not Capital,2872857,False,Large
La Paz,-16.4958,-68.1333,Bolivia,BOL,La Paz,primary,2867504,False,Large
Pyongyang,39.0167,125.7475,"Korea, North",PRK,P’yŏngyang,primary,2863000,False,Large
Tampa,27.9945,-82.4447,United States,USA,Florida,Not Capital,2861173,False,Large
Shaoguan,24.811,113.597,China,CHN,Guangdong,minor,2855131,False,Large
Heyuan,23.7443,114.7002,China,CHN,Guangdong,minor,2837686,False,Large
Brasília,-15.7939,-47.8828,Brazil,BRA,Distrito Federal,primary,2817068,False,Large
Omdurman,15.65,32.4833,Sudan,SDN,Khartoum,Not Capital,2805396,False,Large
Malang,-7.98,112.62,Indonesia,IDN,Jawa Timur,Not Capital,2795209,False,Large
Stuttgart,48.7775,9.18,Germany,DEU,Baden-Württemberg,admin,2787724,False,Large
Daqing,46.589,125.104,China,CHN,Heilongjiang,minor,2781562,False,Large
Rome,41.8933,12.4828,Italy,ITA,Lazio,primary,2748109,False,Large
Brooklyn,40.6501,-73.9496,United States,USA,New York,Not Capital,2736074,False,Large
Kaohsiung,22.615,120.2975,Taiwan,TWN,Kaohsiung,admin,2733964,False,Large
Xiangtan,27.8313,112.9454,China,CHN,Hunan,Not Capital,2726181,False,Large
Longyan,25.076,117.017,China,CHN,Fujian,minor,2723637,False,Large
Baotou,40.6213,109.9532,China,CHN,Inner Mongolia,Not Capital,2709378,False,Large
Handan,36.601,114.487,China,CHN,Hebei,minor,2708015,False,Large
Jinzhou,41.129,121.148,China,CHN,Liaoning,Not Capital,2703853,False,Large
Kanpur,26.4499,80.3319,India,IND,Uttar Pradesh,Not Capital,2701324,False,Large
Denver,39.762,-104.8758,United States,USA,Colorado,admin,2687458,False,Large
Nanping,26.6418,118.1774,China,CHN,Fujian,minor,2680645,False,Large
Gāzipura,23.9889,90.375,Bangladesh,BGD,Dhaka,Not Capital,2674697,False,Large
Shanwei,22.7872,115.3756,China,CHN,Guangdong,minor,2672819,False,Large
Chaozhou,23.658,116.622,China,CHN,Guangdong,minor,2656600,False,Large
Guayaquil,-2.19,-79.8875,Ecuador,ECU,Guayas,admin,2650288,False,Large
Weifang,36.708,119.162,China,CHN,Shandong,Not Capital,2636154,False,Large
Huai’an,33.551,119.113,China,CHN,Jiangsu,Not Capital,2632788,False,Large
Zibo,36.8138,118.055,China,CHN,Shandong,Not Capital,2631647,False,Large
Ankang,32.6854,109.029,China,CHN,Shaanxi,Not Capital,2629906,False,Large
Mogadishu,2.0392,45.3419,Somalia,SOM,Banaadir,primary,2610483,False,Large
Munich,48.1375,11.575,Germany,DEU,Bavaria,admin,2606021,False,Large
Gulou,26.0865,119.298,China,CHN,Fujian,minor,2606000,False,Large
Taipei,25.0375,121.5625,Taiwan,TWN,Taipei,primary,2603150,False,Large
Bekasi,-6.2349,106.9923,Indonesia,IDN,Jawa Barat,Not Capital,2590257,False,Large
Damascus,33.5131,36.2919,Syria,SYR,Dimashq,primary,2584771,False,Large
Sanming,26.2634,117.6389,China,CHN,Fujian,minor,2580000,False,Large
Yangjiang,21.857,111.983,China,CHN,Guangdong,minor,2555600,False,Large
Jiamusi,46.8,130.319,China,CHN,Heilongjiang,minor,2552097,False,Large
Luohe,33.583,114.0109,China,CHN,Henan,minor,2544266,False,Large
Medellín,6.2308,-75.5906,Colombia,COL,Antioquia,admin,2529403,False,Large
Dingxi,35.608,104.592,China,CHN,Gansu,minor,2524097,False,Large
Shaoxing,30.0511,120.5833,China,CHN,Zhejiang,minor,2521964,False,Large
Yantai,37.4646,121.4478,China,CHN,Shandong,Not Capital,2511053,False,Large
Huizhou,23.112,114.416,China,CHN,Guangdong,minor,2509243,False,Large
Lishui,28.468,119.923,China,CHN,Zhejiang,minor,2507396,False,Large
Xuanzhou,30.939,118.759,China,CHN,Anhui,Not Capital,2500063,False,Large
Khowrhesht,36.205,49.6872,Iran,IRN,Qazvīn,Not Capital,2500000,False,Large
Mirzāpur,25.146,82.569,India,IND,Uttar Pradesh,Not Capital,2496970,False,Large
Zigong,29.339,104.779,China,CHN,Sichuan,Not Capital,2489256,False,Large
Hamburg,53.55,10.0,Germany,DEU,Hamburg,admin,2484800,False,Large
Guangyuan,32.436,105.844,China,CHN,Sichuan,Not Capital,2484122,False,Large
Cali,3.4206,-76.5222,Colombia,COL,Valle del Cauca,admin,2471474,False,Large
Huangshi,30.2011,115.039,China,CHN,Hubei,minor,2469079,False,Large
Xining,36.6224,101.7804,China,CHN,Qinghai,admin,2467965,False,Large
Lusaka,-15.4167,28.2833,Zambia,ZMB,Lusaka,primary,2467563,False,Large
Ouagadougou,12.3686,-1.5275,Burkina Faso,BFA,Centre,primary,2453496,False,Large
Yaoundé,3.8667,11.5167,Cameroon,CMR,Centre,primary,2440462,False,Large
Zhuhai,22.2716,113.5769,China,CHN,Guangdong,minor,2439585,False,Large
Huludao,40.711,120.837,China,CHN,Liaoning,minor,2434194,False,Large
Baoshan,25.112,99.161,China,CHN,Yunnan,Not Capital,2431211,False,Large
Mecca,21.4225,39.8233,Saudi Arabia,SAU,Makkah al Mukarramah,admin,2427924,False,Large
Vancouver,49.25,-123.1,Canada,CAN,British Columbia,Not Capital,2426160,False,Large
Lianshan,40.7523,120.828,China,CHN,Liaoning,minor,2426000,False,Large
Beirut,33.8983,35.5057,Lebanon,LBN,Beyrouth,primary,2421354,False,Large
Salvador,-12.9747,-38.4767,Brazil,BRA,Bahia,admin,2418005,False,Large
Bucharest,44.4325,26.1039,Romania,ROU,Bucureşti,primary,2412530,False,Large
Longba,33.3702,104.9603,China,CHN,Gansu,Not Capital,2407272,False,Large
Nāgpur,21.1497,79.0806,India,IND,Mahārāshtra,Not Capital,2405665,False,Large
Queens,40.7498,-73.7976,United States,USA,New York,Not Capital,2405464,False,Large
Jilin,43.8519,126.5481,China,CHN,Jilin,Not Capital,2396000,False,Large
Tieling,42.2237,123.726,China,CHN,Liaoning,Not Capital,2388294,False,Large
Accra,5.55,-0.2,Ghana,GHA,Greater Accra,primary,2388000,False,Large
Yunfu,22.9152,112.0445,China,CHN,Guangdong,minor,2383350,False,Large
Bekasi Kota,-6.2333,107.0,Indonesia,IDN,Jawa Barat,Not Capital,2381053,False,Large
Daegu,35.8717,128.6017,"Korea, South",KOR,Daegu,admin,2376044,False,Large
Ghāziābād,28.67,77.42,India,IND,Uttar Pradesh,Not Capital,2375820,False,Large
Luoyang,34.6197,112.4539,China,CHN,Henan,Not Capital,2372571,False,Large
Brisbane,-27.4678,153.0281,Australia,AUS,Queensland,admin,2360241,False,Large
Anshun,26.2531,105.9476,China,CHN,Guizhou,Not Capital,2353100,False,Large
Riverside,33.9381,-117.3949,United States,USA,California,Not Capital,2332836,False,Large
Yingkou,40.625,122.219,China,CHN,Liaoning,minor,2328582,False,Large
Colombo,6.9344,79.8428,Sri Lanka,LKA,Western,primary,2323826,False,Large
Yanjiang,30.129,104.627,China,CHN,Sichuan,minor,2308631,False,Large
Baku,40.3953,49.8822,Azerbaijan,AZE,Bakı,primary,2300500,False,Large
Antananarivo,-18.91,47.525,Madagascar,MDG,Antananarivo,primary,2300000,False,Large
Mudanjiang,44.5514,129.6329,China,CHN,Heilongjiang,minor,2290208,False,Large
Fukuoka,33.59,130.4017,Japan,JPN,Fukuoka,admin,2286000,False,Large
Yan’an,36.65,109.494,China,CHN,Shaanxi,Not Capital,2282581,False,Large
Jincheng,35.491,112.852,China,CHN,Shanxi,minor,2279146,False,Large
Nantong,31.981,120.894,China,CHN,Jiangsu,minor,2261382,False,Large
Lincang,23.884,100.089,China,CHN,Yunnan,Not Capital,2257991,False,Large
Yuxi,24.347,102.527,China,CHN,Yunnan,minor,2249502,False,Large
Las Vegas,36.2333,-115.2654,United States,USA,Nevada,Not Capital,2248047,False,Large
Caracas,10.4806,-66.9036,Venezuela,VEN,Distrito Capital,primary,2245744,False,Large
Tangerang,-6.1703,106.6403,Indonesia,IDN,Jawa Barat,Not Capital,2237006,False,Large
Laibin,23.7501,109.2212,China,CHN,Guangxi,minor,2233900,False,Large
Konya,37.8667,32.4833,Turkey,TUR,Konya,admin,2232374,False,Large
Supaul,26.126,86.605,India,IND,Bihār,Not Capital,2229076,False,Large
Vienna,48.2083,16.3725,Austria,AUT,Wien,primary,2223236,False,Large
Eşfahān,32.6447,51.6675,Iran,IRN,Eşfahān,admin,2219343,False,Large
Baltimore,39.3051,-76.6144,United States,USA,Maryland,Not Capital,2196524,False,Large
Shengli,37.434,118.6746,China,CHN,Shandong,minor,2193518,False,Large
Dandong,40.1167,124.3833,China,CHN,Liaoning,Not Capital,2188436,False,Large
Qinbaling,35.7278,107.64,China,CHN,Gansu,Not Capital,2179716,False,Large
Gaoping,30.7824,106.1281,China,CHN,Sichuan,minor,2174000,False,Large
Awka,6.2069,7.0678,Nigeria,NGA,Anambra,admin,2171900,False,Large
Taizhou,28.6557,121.4208,China,CHN,Zhejiang,minor,2162461,False,Large
Ma’anshan,31.669,118.507,China,CHN,Anhui,minor,2159930,False,Large
Harare,-17.8292,31.0522,Zimbabwe,ZWE,Harare,primary,2150000,False,Large
Perth,-31.9559,115.8606,Australia,AUS,Western Australia,admin,2141834,False,Large
St. Louis,38.6359,-90.2451,United States,USA,Missouri,Not Capital,2130881,False,Large
Phnom Penh,11.5694,104.9211,Cambodia,KHM,Phnom Penh,primary,2129371,False,Large
Depok,-6.394,106.8225,Indonesia,IDN,Jawa Barat,Not Capital,2123349,False,Large
Stockholm,59.3294,18.0686,Sweden,SWE,Stockholm,primary,2121000,False,Large
Puning,23.298,116.166,China,CHN,Guangdong,Not Capital,2118200,False,Large
Huaibei,33.956,116.798,China,CHN,Anhui,Not Capital,2114276,False,Large
Kowloon,22.3167,114.1833,Hong Kong,HKG,香港 Hong Kong,Not Capital,2108419,False,Large
Córdoba,-31.4167,-64.1833,Argentina,ARG,Córdoba,admin,2106734,False,Large
Haiphong,20.8651,106.6838,Vietnam,VNM,Hải Phòng,admin,2103500,False,Large
Zamboanga City,6.9042,122.0761,Philippines,PHL,Zamboanga,admin,2100000,False,Large
Chongzuo,22.377,107.365,China,CHN,Guangxi,minor,2099400,False,Large
Rawalpindi,33.6,73.0333,Pakistan,PAK,Punjab,minor,2098231,False,Large
Portland,45.5371,-122.65,United States,USA,Oregon,Not Capital,2095808,False,Large
Kano,12.0,8.5167,Nigeria,NGA,Kano,admin,2095000,False,Large
Yushan,31.322,120.985,China,CHN,Jiangsu,minor,2092496,False,Large
Havana,23.1367,-82.3589,Cuba,CUB,La Habana,primary,2089532,False,Large
Hezhou,24.4042,111.5672,China,CHN,Guangxi,minor,2072600,False,Large
Pingliang,35.5424,106.6649,China,CHN,Gansu,minor,2068033,False,Large
Vadodara,22.3,73.2,India,IND,Gujarāt,Not Capital,2065771,False,Large
Manaus,-3.1189,-60.0217,Brazil,BRA,Amazonas,admin,2063547,False,Large
Qingyang,24.7816,118.5517,China,CHN,Fujian,minor,2061600,False,Large
San Antonio,29.4632,-98.5238,United States,USA,Texas,Not Capital,2058444,False,Large
Rājkot,22.3,70.7833,India,IND,Gujarāt,Not Capital,2043000,False,Large
Shangzhou,33.868,109.9244,China,CHN,Shaanxi,Not Capital,2041231,False,Large
Vishākhapatnam,17.7042,83.2978,India,IND,Andhra Pradesh,Not Capital,2035922,False,Large
Sanmenxia,34.7732,111.2004,China,CHN,Henan,Not Capital,2034872,False,Large
Baicheng,45.62,122.838,China,CHN,Jilin,minor,2032356,False,Large
Gujranwala,32.1567,74.19,Pakistan,PAK,Punjab,minor,2027001,False,Large
Aleppo,36.2,37.16,Syria,SYR,Ḩalab,admin,2003671,False,Large
Tijuana,32.525,-117.0333,Mexico,MEX,Baja California,minor,2002000,False,Large
Bamenda,5.9614,10.1517,Cameroon,CMR,North-West,admin,2000000,False,Large
Minsk,53.9,27.5667,Belarus,BLR,Minsk,primary,1995471,False,Large
Indore,22.7167,75.8472,India,IND,Madhya Pradesh,Not Capital,1994397,False,Large
Karaj,35.8272,50.9489,Iran,IRN,Alborz,admin,1973470,False,Large
Kananga,-5.897,22.4488,Congo (Kinshasa),COD,Kasaï Central,admin,1971704,False,Large
Peshawar,34.0144,71.5675,Pakistan,PAK,Khyber Pakhtunkhwa,admin,1970042,False,Large
Sapporo,43.0619,141.3544,Japan,JPN,Hokkaidō,admin,1959313,False,Large
Sacramento,38.5677,-121.4685,United States,USA,California,admin,1957738,False,Large
Tilburg,51.55,5.0833,Netherlands,NLD,Noord-Brabant,minor,1944588,False,Large
Pingxiang,27.659,113.887,China,CHN,Jiangxi,minor,1933200,False,Large
Ecatepec,19.6097,-99.06,Mexico,MEX,México,minor,1929926,False,Large
Almaty,43.24,76.915,Kazakhstan,KAZ,Almaty,admin,1916822,False,Large
Austin,30.3005,-97.7522,United States,USA,Texas,admin,1905945,False,Large
Yinchuan,38.485,106.225,China,CHN,Ningxia,admin,1901793,False,Large
Santos,-23.9369,-46.325,Brazil,BRA,São Paulo,Not Capital,1897551,False,Large
Blantyre,-15.7861,35.0058,Malawi,MWI,Blantyre,admin,1895973,False,Large
Thāne,19.1972,72.9722,India,IND,Mahārāshtra,Not Capital,1886941,False,Large
Orlando,28.4773,-81.337,United States,USA,Florida,Not Capital,1882705,False,Large
Tainan,22.9833,120.1833,Taiwan,TWN,Tainan,admin,1874686,False,Large
Xiping,40.082,113.2981,China,CHN,Shanxi,minor,1873000,False,Large
Multan,30.1978,71.4697,Pakistan,PAK,Punjab,minor,1871843,False,Large
Santa Cruz,-17.8,-63.1833,Bolivia,BOL,Santa Cruz,admin,1867673,False,Large
Port Harcourt,4.8242,7.0336,Nigeria,NGA,Rivers,admin,1865000,False,Large
Jixi,45.295,130.969,China,CHN,Heilongjiang,minor,1862165,False,Large
Fushun,41.881,123.957,China,CHN,Liaoning,Not Capital,1861372,False,Large
Warsaw,52.23,21.0111,Poland,POL,Mazowieckie,primary,1860281,False,Large
Beihai,21.481,109.12,China,CHN,Guangxi,minor,1853227,False,Large
Fuxin,42.022,121.67,China,CHN,Liaoning,Not Capital,1819339,False,Large
Wuwei,37.929,102.638,China,CHN,Gansu,minor,1815059,False,Large
Siping,43.1668,124.3506,China,CHN,Jilin,minor,1814733,False,Large
San Juan,18.3985,-66.061,Puerto Rico,PRI,Puerto Rico,primary,1814587,False,Large
Mersin,36.8,34.6333,Turkey,TUR,Mersin,admin,1814468,False,Large
Bhopāl,23.2599,77.4126,India,IND,Madhya Pradesh,admin,1798218,False,Large
Mosul,36.34,43.13,Iraq,IRQ,Nīnawá,admin,1792000,False,Large
Lubumbashi,-11.6647,27.4794,Congo (Kinshasa),COD,Haut-Katanga,admin,1786397,False,Large
Davao,7.07,125.6,Philippines,PHL,Davao,admin,1776949,False,Large
Curitiba,-25.4297,-49.2711,Brazil,BRA,Paraná,admin,1773733,False,Large
San Jose,37.3012,-121.848,United States,USA,California,Not Capital,1771413,False,Large
Shuyangzha,34.1299,118.7734,China,CHN,Jiangsu,Not Capital,1770000,False,Large
Adana,37.0,35.3213,Turkey,TUR,Adana,admin,1765981,False,Large
Quito,-0.22,-78.5125,Ecuador,ECU,Pichincha,primary,1763275,False,Large
Pittsburgh,40.4397,-79.9763,United States,USA,Pennsylvania,Not Capital,1749091,False,Large
Brazzaville,-4.2694,15.2711,Congo (Brazzaville),COG,Brazzaville,primary,1733263,False,Large
Hyderabad City,25.3792,68.3683,Pakistan,PAK,Sindh,minor,1732693,False,Large
Diyarbakır,37.91,40.24,Turkey,TUR,Diyarbakır,admin,1732396,False,Large
Indianapolis,39.7771,-86.1458,United States,USA,Indiana,admin,1729849,False,Large
Pimpri-Chinchwad,18.6186,73.8037,India,IND,Mahārāshtra,Not Capital,1727692,False,Large
Masqaţ,23.5889,58.4083,Oman,OMN,Masqaţ,Not Capital,1720000,False,Large
Montevideo,-34.8836,-56.1819,Uruguay,URY,Montevideo,primary,1719453,False,Large
Shuozhou,39.3317,112.4329,China,CHN,Shanxi,minor,1714857,False,Large
Manhattan,40.7834,-73.9662,United States,USA,New York,Not Capital,1694263,False,Large
Cincinnati,39.1413,-84.506,United States,USA,Ohio,Not Capital,1692702,False,Large
Kansas City,39.1238,-94.5541,United States,USA,Missouri,Not Capital,1689556,False,Large
Patna,25.594,85.1376,India,IND,Bihār,admin,1684222,False,Large
Tegucigalpa,14.1058,-87.2047,Honduras,HND,Francisco Morazán,primary,1682725,False,Large
Kampala,0.3136,32.5811,Uganda,UGA,Kampala,primary,1680600,False,Large
Cleveland,41.4764,-81.6805,United States,USA,Ohio,Not Capital,1680247,False,Large
Sanzhou,30.82,108.4,China,CHN,Chongqing,Not Capital,1680000,False,Large
Changshu,31.656,120.753,China,CHN,Jiangsu,Not Capital,1677050,False,Large
Heihe,50.2401,127.521,China,CHN,Heilongjiang,minor,1673899,False,Large
Conakry,9.5092,-13.7122,Guinea,GIN,Conakry,primary,1667864,False,Large
Ximeicun,24.9612,118.3849,China,CHN,Fujian,Not Capital,1663542,False,Large
Caloocan City,14.65,120.97,Philippines,PHL,Caloocan,admin,1661584,False,Large
Masvingo,-20.0744,30.8328,Zimbabwe,ZWE,Masvingo,admin,1638528,False,Large
Zhongli,24.965,121.2168,Taiwan,TWN,Taoyuan,Not Capital,1632616,False,Large
Novosibirsk,55.05,82.95,Russia,RUS,Novosibirskaya Oblast’,admin,1625631,False,Large
Bilāspur,22.09,82.15,India,IND,Chhattīsgarh,Not Capital,1625502,False,Large
Semarang,-6.99,110.4225,Indonesia,IDN,Jawa Tengah,admin,1621384,False,Large
Jingdezhen,29.2917,117.1986,China,CHN,Jiangxi,minor,1618979,False,Large
Ludhiāna,30.91,75.85,India,IND,Punjab,Not Capital,1618879,False,Large
Liaoyang,41.279,123.176,China,CHN,Liaoning,Not Capital,1604580,False,Large
Chengtangcun,35.0833,117.15,China,CHN,Shandong,Not Capital,1603659,False,Large
Rājshāhi,24.3667,88.6,Bangladesh,BGD,Rājshāhi,admin,1600000,False,Large
Balandougou,13.3558,-9.5517,Mali,MLI,Kayes,Not Capital,1596882,False,Large
Jiangyin,31.839,120.295,China,CHN,Jiangsu,Not Capital,1595138,False,Large
Valencia,39.47,-0.3764,Spain,ESP,Valencia,admin,1595000,False,Large
Āgra,27.18,78.02,India,IND,Uttar Pradesh,Not Capital,1585704,False,Large
León de los Aldama,21.1167,-101.6833,Mexico,MEX,Guanajuato,minor,1579803,False,Large
Puebla,19.0333,-98.1833,Mexico,MEX,Puebla,admin,1576259,False,Large
Columbus,39.9862,-82.9855,United States,USA,Ohio,admin,1572546,False,Large
Yopougon,5.3167,-4.0667,Côte d’Ivoire,CIV,Abidjan,Not Capital,1571065,False,Large
Hebi,35.748,114.297,China,CHN,Henan,Not Capital,1569208,False,Large
Shīrāz,29.61,52.5425,Iran,IRN,Fārs,admin,1565572,False,Large
Madurai,9.9252,78.1198,India,IND,Tamil Nādu,minor,1561129,False,Large
Huzhou,30.8925,120.0875,China,CHN,Zhejiang,minor,1558826,False,Large
Tabrīz,38.0814,46.3006,Iran,IRN,Āz̄arbāyjān-e Sharqī,admin,1558693,False,Large
Jamshedpur,22.7925,86.1842,India,IND,Jhārkhand,Not Capital,1558000,False,Large
Maracaibo,10.6333,-71.6333,Venezuela,VEN,Zulia,admin,1551539,False,Large
Sofia,42.7,23.33,Bulgaria,BGR,Sofia-Grad,primary,1547779,False,Large
San José,9.9325,-84.08,Costa Rica,CRI,San José,primary,1543000,False,Large
Prayagraj,25.4358,81.8464,India,IND,Uttar Pradesh,Not Capital,1536218,False,Large
Palembang,-2.9861,104.7556,Indonesia,IDN,Sumatera Selatan,admin,1535952,False,Large
Kawasaki,35.5167,139.7,Japan,JPN,Kanagawa,Not Capital,1531646,False,Large
Kōbe,34.69,135.1956,Japan,JPN,Hyōgo,admin,1521707,False,Large
Jiaxing,30.747,120.756,China,CHN,Zhejiang,minor,1518654,False,Large
Kigali,-1.9439,30.0594,Rwanda,RWA,Kigali,primary,1518632,False,Large
Zhangjiajie,29.117,110.479,China,CHN,Hunan,minor,1517027,False,Large
Baiyin,36.5451,104.1389,China,CHN,Gansu,minor,1512110,False,Large
Guiping,23.4,110.0833,China,CHN,Guangxi,minor,1511011,False,Large
Lianjiang,21.7333,110.2833,China,CHN,Guangdong,Not Capital,1509400,False,Large
Jianguang,28.1958,115.7833,China,CHN,Jiangxi,Not Capital,1507402,False,Large
Yucheng,30.01,103.0415,China,CHN,Sichuan,minor,1507258,False,Large
Xushan,30.1667,121.2333,China,CHN,Zhejiang,minor,1502000,False,Large
Panama City,8.9833,-79.5167,Panama,PAN,Panamá,primary,1500189,False,Large
Nneyi-Umuleri,6.3333,6.8333,Nigeria,NGA,Anambra,Not Capital,1500000,False,Large
Leizhou,20.9143,110.0967,China,CHN,Guangdong,minor,1494700,False,Large
Gwangju,35.1653,126.8486,"Korea, South",KOR,Gwangju,admin,1490092,False,Large
Katako-Kombe,-3.4,24.42,Congo (Kinshasa),COD,Sankuru,Not Capital,1488922,False,Large
Recife,-8.05,-34.9,Brazil,BRA,Pernambuco,admin,1488920,False,Large
Nāsik,19.9975,73.7898,India,IND,Mahārāshtra,Not Capital,1486053,False,Large
Valencia,10.1833,-68.0,Venezuela,VEN,Carabobo,admin,1484430,False,Large
Onitsha,6.1667,6.7833,Nigeria,NGA,Anambra,minor,1483000,False,Large
Abu Dhabi,24.4667,54.3667,United Arab Emirates,ARE,Abū Z̧aby,primary,1483000,False,Large
Zapopan,20.7167,-103.4,Mexico,MEX,Jalisco,minor,1476491,False,Large
Daejeon,36.35,127.385,"Korea, South",KOR,Daejeon,admin,1475221,False,Large
Bronx,40.8501,-73.8662,United States,USA,New York,Not Capital,1472654,False,Large
Yekaterinburg,56.8356,60.6128,Russia,RUS,Sverdlovskaya Oblast’,admin,1468833,False,Large
Huazhou,32.688,112.087,China,CHN,Henan,minor,1468061,False,Large
Jinhua,29.079,119.647,China,CHN,Zhejiang,minor,1463990,False,Large
Kyōto,35.0117,135.7683,Japan,JPN,Kyōto,admin,1463723,False,Large
Amsterdam,52.3728,4.8936,Netherlands,NLD,Noord-Holland,primary,1459402,False,Large
Pizhou,34.398,117.89,China,CHN,Jiangsu,Not Capital,1458038,False,Large
Kismaayo,-0.3581,42.5453,Somalia,SOM,Jubbada Hoose,admin,1458000,False,Large
Yangshe,31.8767,120.556,China,CHN,Jiangsu,minor,1447600,False,Large
Virginia Beach,36.7335,-76.0435,United States,USA,Virginia,Not Capital,1443020,False,Large
Dakar,14.6928,-17.4467,Senegal,SEN,Dakar,primary,1438725,False,Large
Goiânia,-16.6667,-49.25,Brazil,BRA,Goiás,admin,1437237,False,Large
Charlotte,35.2083,-80.8303,United States,USA,North Carolina,Not Capital,1427444,False,Large
Rui’an,27.7833,120.625,China,CHN,Zhejiang,Not Capital,1424667,False,Large
Muscat,23.6139,58.5922,Oman,OMN,Masqaţ,primary,1421409,False,Large
Kharkiv,49.9925,36.2311,Ukraine,UKR,Kharkivska Oblast,admin,1421125,False,Large
Wenling,28.3667,121.3667,China,CHN,Zhejiang,Not Capital,1416199,False,Large
Gaozhou,21.9244,110.8422,China,CHN,Guangdong,minor,1414100,False,Large
Farīdābād,28.4211,77.3078,India,IND,Haryāna,Not Capital,1414050,False,Large
Medina,24.47,39.61,Saudi Arabia,SAU,Al Madīnah al Munawwarah,admin,1411599,False,Large
Khulna,22.8167,89.55,Bangladesh,BGD,Khulna,admin,1400689,False,Large
Ulaanbaatar,47.9203,106.9172,Mongolia,MNG,Ulaanbaatar,primary,1396288,False,Large
Fuqing,25.7167,119.3833,China,CHN,Fujian,minor,1390487,False,Large
Kayseri,38.7225,35.4875,Turkey,TUR,Kayseri,admin,1389680,False,Large
Tel Aviv-Yafo,32.08,34.78,Israel,ISR,Tel Aviv,admin,1388400,False,Large
Wuzhong,37.9978,106.1986,China,CHN,Ningxia,minor,1382713,False,Large
Pingdu,36.7769,119.9884,China,CHN,Shandong,Not Capital,1378900,False,Large
Sangereng,-6.2889,106.7181,Indonesia,IDN,Jawa Barat,Not Capital,1378466,False,Large
Yangquan,37.8571,113.5804,China,CHN,Shanxi,minor,1368502,False,Large
Samsun,41.2903,36.3336,Turkey,TUR,Samsun,admin,1368488,False,Large
Yutan,28.278,112.552,China,CHN,Hunan,minor,1368117,False,Large
Copenhagen,55.6761,12.5683,Denmark,DNK,Hovedstaden,primary,1366301,False,Large
Helsinki,60.1708,24.9375,Finland,FIN,Uusimaa,primary,1360075,False,Large
Prague,50.0875,14.4214,Czechia,CZE,Praha,primary,1357326,False,Large
Milan,45.4669,9.19,Italy,ITA,Lombardy,admin,1354196,False,Large
Auckland,-36.8406,174.74,New Zealand,NZL,Auckland,admin,1346091,False,Large
Santiago,19.4572,-70.6889,Dominican Republic,DOM,Cibao Norte,admin,1343423,False,Large
Chizhou,30.6654,117.4916,China,CHN,Anhui,minor,1342764,False,Large
Makassar,-5.1619,119.4362,Indonesia,IDN,Sulawesi Selatan,admin,1338663,False,Large
Liangshi,27.26,111.7442,China,CHN,Hunan,Not Capital,1335900,False,Large
Porto Alegre,-30.0331,-51.23,Brazil,BRA,Rio Grande do Sul,admin,1332570,False,Large
Huangshan,29.7149,118.3376,China,CHN,Anhui,minor,1330565,False,Large
Barranquilla,10.9833,-74.8019,Colombia,COL,Atlántico,admin,1326588,False,Large
Al Başrah,30.515,47.81,Iraq,IRQ,Al Başrah,admin,1326564,False,Large
Benxi,41.4868,123.685,China,CHN,Liaoning,Not Capital,1326018,False,Large
Saitama,35.8614,139.6456,Japan,JPN,Saitama,admin,1325843,False,Large
Guarulhos,-23.4628,-46.5328,Brazil,BRA,São Paulo,Not Capital,1324781,False,Large
Juárez,31.745,-106.485,Mexico,MEX,Chihuahua,minor,1321004,False,Large
Mandalay,21.9831,96.0844,Burma,MMR,Mandalay,admin,1319452,False,Large
Xintai,35.909,117.768,China,CHN,Shandong,Not Capital,1315942,False,Large
Wusong,30.9333,117.7667,China,CHN,Anhui,minor,1311726,False,Large
Calgary,51.05,-114.0667,Canada,CAN,Alberta,Not Capital,1306784,False,Large
Meerut,28.98,77.71,India,IND,Uttar Pradesh,Not Capital,1305429,False,Large
Yushu,44.826,126.55,China,CHN,Jilin,minor,1304436,False,Large
Belém,-1.4558,-48.5039,Brazil,BRA,Pará,admin,1303389,False,Large
Kuaidamao,41.7283,125.9397,China,CHN,Jilin,minor,1302778,False,Large
Huazhou,21.664,110.6396,China,CHN,Guangdong,Not Capital,1302100,False,Large
Baishan,41.944,126.4147,China,CHN,Jilin,minor,1296127,False,Large
Adelaide,-34.9275,138.6,Australia,AUS,South Australia,admin,1295714,False,Large
Haicheng,40.8824,122.6852,China,CHN,Liaoning,minor,1293877,False,Large
Milwaukee,43.0642,-87.9675,United States,USA,Wisconsin,Not Capital,1290940,False,Large
Providence,41.823,-71.4187,United States,USA,Rhode Island,admin,1290271,False,Large
Jacksonville,30.3322,-81.6749,United States,USA,Florida,Not Capital,1288298,False,Large
Yicheng,31.36,119.815,China,CHN,Jiangsu,minor,1285785,False,Large
Cacuaco,-8.8053,13.2444,Angola,AGO,Luanda,Not Capital,1279488,False,Large
Porto,41.1621,-8.622,Portugal,PRT,Porto,admin,1278210,False,Large
Rosario,-32.9575,-60.6394,Argentina,ARG,Santa Fe,minor,1276000,False,Large
Canagatan,18.0,121.8,Philippines,PHL,Cagayan,Not Capital,1273219,False,Large
Soweto,-26.2678,27.8585,South Africa,ZAF,Gauteng,Not Capital,1271628,False,Large
Bagam,1.13,104.0531,Indonesia,IDN,Kepulauan Riau,Not Capital,1269820,False,Large
Jabalpur,23.1667,79.9333,India,IND,Madhya Pradesh,Not Capital,1267564,False,Large
Rucheng,32.246,120.591,China,CHN,Jiangsu,minor,1267066,False,Large
Huaiyin,33.5819,119.028,China,CHN,Jiangsu,Not Capital,1264000,False,Large
Dublin,53.35,-6.2603,Ireland,IRL,Dublin,primary,1263219,False,Large
Kazan,55.7964,49.1089,Russia,RUS,Tatarstan,admin,1259173,False,Large
Dayan,26.8552,100.2259,China,CHN,Yunnan,Not Capital,1253878,False,Large
Shaoyang,32.912,119.8526,China,CHN,Jiangsu,minor,1253548,False,Large
Balıkesir,39.6333,27.8833,Turkey,TUR,Balıkesir,admin,1250610,False,Large
Comayagüela,14.098,-87.21,Honduras,HND,Francisco Morazán,Not Capital,1250000,False,Large
Laiwu,36.1833,117.6667,China,CHN,Shandong,Not Capital,1248636,False,Large
Sharjah,25.3575,55.3908,United Arab Emirates,ARE,Ash Shāriqah,admin,1247749,False,Large
Jingling,30.664,113.167,China,CHN,Hubei,Not Capital,1247400,False,Large
Kalyān,19.2502,73.1602,India,IND,Mahārāshtra,Not Capital,1246381,False,Large
Nizhniy Novgorod,56.3269,44.0075,Russia,RUS,Nizhegorodskaya Oblast’,admin,1244254,False,Large
Yongcheng,33.9299,116.45,China,CHN,Henan,Not Capital,1240382,False,Large
Sumedang,-6.84,107.9208,Indonesia,IDN,Jawa Barat,Not Capital,1240000,False,Large
Cần Thơ,10.0333,105.7833,Vietnam,VNM,Cần Thơ,admin,1237300,False,Large
Brussels,50.8467,4.3525,Belgium,BEL,Brussels-Capital Region,primary,1235192,False,Large
Suwon,37.2667,127.0167,"Korea, South",KOR,Gyeonggi,admin,1234300,False,Large
Yiwu,29.3069,120.0753,China,CHN,Zhejiang,minor,1234015,False,Large
Beidao,34.602,105.918,China,CHN,Gansu,minor,1225000,False,Large
Vasai-Virar,19.3607,72.7956,India,IND,Mahārāshtra,Not Capital,1221233,False,Large
Xiangshui,26.5964,104.8314,China,CHN,Guizhou,Not Capital,1221000,False,Large
Dadukou,26.5824,101.7184,China,CHN,Sichuan,minor,1214121,False,Large
Campinas,-22.9058,-47.0608,Brazil,BRA,São Paulo,Not Capital,1213792,False,Large
Lingcheng,22.7,110.35,China,CHN,Guangxi,Not Capital,1211637,False,Large
Shuangyashan,46.6762,131.1416,China,CHN,Heilongjiang,minor,1208803,False,Large
Mombasa,-4.05,39.6667,Kenya,KEN,Mombasa,admin,1208333,False,Large
Najafgarh,28.6092,76.9798,India,IND,Delhi,Not Capital,1203180,False,Large
Xinyu,27.8186,114.9167,China,CHN,Jiangxi,minor,1202499,False,Large
Qom,34.64,50.8764,Iran,IRN,Qom,admin,1201158,False,Large
Hargeysa,9.5631,44.0675,Somalia,SOM,Woqooyi Galbeed,admin,1200000,False,Large
Baidoa,3.1167,43.65,Somalia,SOM,Bay,admin,1200000,False,Large
Zhangye,38.9248,100.4499,China,CHN,Gansu,minor,1199515,False,Large
Vārānasi,25.3189,83.0128,India,IND,Uttar Pradesh,Not Capital,1198491,False,Large
Hiroshima,34.3914,132.4519,Japan,JPN,Hiroshima,admin,1198021,False,Large
Chiang Mai,18.7953,98.9986,Thailand,THA,Chiang Mai,admin,1198000,False,Large
Belgrade,44.82,20.46,Serbia,SRB,Beograd,primary,1197714,False,Large
Maiduguri,11.8333,13.15,Nigeria,NGA,Borno,admin,1197497,False,Large
Chelyabinsk,55.1547,61.3758,Russia,RUS,Chelyabinskaya Oblast’,admin,1196680,False,Large
Batam Centre,1.13,104.0531,Indonesia,IDN,Kepulauan Riau,Not Capital,1196396,False,Large
Rongcheng,26.218,104.103,China,CHN,Yunnan,Not Capital,1189813,False,Large
Mbandaka,0.0478,18.2558,Congo (Kinshasa),COD,Équateur,admin,1187837,False,Large
Doha,25.2867,51.5333,Qatar,QAT,Ad Dawḩah,primary,1186023,False,Large
Ahvāz,31.3047,48.6783,Iran,IRN,Khūzestān,admin,1184788,False,Large
Shymkent,42.3167,69.5958,Kazakhstan,KAZ,Shymkent,admin,1184113,False,Large
Tripoli,32.8872,13.1914,Libya,LBY,Ţarābulus,primary,1183000,False,Large
Srīnagar,34.09,74.79,India,IND,Jammu and Kashmīr,admin,1180570,False,Large
Nashville,36.1715,-86.7842,United States,USA,Tennessee,admin,1177657,False,Large
Liaoyuan,42.888,125.1447,China,CHN,Jilin,minor,1176239,False,Large
Aurangābād,19.88,75.32,India,IND,Mahārāshtra,Not Capital,1175116,False,Large
Cilacap,-7.7167,109.017,Indonesia,IDN,Jawa Tengah,minor,1174964,False,Large
Salt Lake City,40.7776,-111.9311,United States,USA,Utah,admin,1173879,False,Large
Omsk,54.9833,73.3667,Russia,RUS,Omskaya Oblast’,admin,1172070,False,Large
Pikine,14.75,-17.4,Senegal,SEN,Dakar,Not Capital,1170791,False,Large
Samara,53.2028,50.1408,Russia,RUS,Samarskaya Oblast’,admin,1169719,False,Large
Guankou,28.1637,113.6433,China,CHN,Hunan,minor,1168056,False,Large
Bandar Lampung,-5.45,105.2667,Indonesia,IDN,Lampung,admin,1166761,False,Large
Raleigh,35.8324,-78.6429,United States,USA,North Carolina,admin,1163152,False,Large
Lianyuan,27.692,111.664,China,CHN,Hunan,minor,1162928,False,Large
Rongcheng,29.8402,112.9048,China,CHN,Hubei,minor,1162770,False,Large
Dhanbād,23.7998,86.4305,India,IND,Jhārkhand,Not Capital,1162472,False,Large
Nay Pyi Taw,19.7475,96.115,Burma,MMR,Nay Pyi Taw,primary,1160242,False,Large
Aba,5.1167,7.3667,Nigeria,NGA,Abia,minor,1160000,False,Large
Kaiyuan,36.0193,113.86,China,CHN,Henan,minor,1160000,False,Large
Zhuji,29.7167,120.2333,China,CHN,Zhejiang,minor,1157938,False,Large
Yingtan,28.2721,117.0395,China,CHN,Jiangxi,Not Capital,1154223,False,Large
Edmonton,53.5344,-113.4903,Canada,CAN,Alberta,admin,1151635,False,Large
Leiyang,26.4223,112.8598,China,CHN,Hunan,minor,1151554,False,Large
Ulsan,35.55,129.3167,"Korea, South",KOR,Ulsan,admin,1150116,False,Large
Yichun,47.728,128.841,China,CHN,Heilongjiang,minor,1148126,False,Large
Benin City,6.3333,5.6222,Nigeria,NGA,Edo,admin,1147188,False,Large
Bujumbura,-3.3833,29.3667,Burundi,BDI,Bujumbura Mairie,primary,1143202,False,Large
Guyuan,36.01,106.257,China,CHN,Ningxia,Not Capital,1142142,False,Large
Xiantao,30.328,113.443,China,CHN,Hubei,Not Capital,1140100,False,Large
Rostov,47.2225,39.71,Russia,RUS,Rostovskaya Oblast’,admin,1137704,False,Large
Maputo,-25.9667,32.5833,Mozambique,MOZ,Maputo,primary,1133200,False,Large
Bukavu,-2.5,28.8667,Congo (Kinshasa),COD,Sud-Kivu,admin,1133000,False,Large
Amritsar,31.64,74.86,India,IND,Punjab,Not Capital,1132383,False,Large
Shagamu,6.8333,3.65,Nigeria,NGA,Ogun,minor,1132270,False,Large
Yingchuan,34.1511,113.4733,China,CHN,Henan,minor,1131896,False,Large
Alīgarh,27.88,78.08,India,IND,Uttar Pradesh,Not Capital,1131160,False,Large
Santo Domingo,18.4667,-69.95,Dominican Republic,DOM,Ozama,primary,1128678,False,Large
Bogor,-6.5966,106.7972,Indonesia,IDN,Jawa Barat,Not Capital,1127408,False,Large
Bishkek,42.8747,74.6122,Kyrgyzstan,KGZ,Bishkek,primary,1120827,False,Large
Tbilisi,41.7225,44.7925,Georgia,GEO,Tbilisi,primary,1118035,False,Large
Guwāhāti,26.1722,91.7458,India,IND,Assam,Not Capital,1116267,False,Large
Ufa,54.7261,55.9475,Russia,RUS,Bashkortostan,admin,1115560,False,Large
Fès,34.0433,-5.0033,Morocco,MAR,Fès-Meknès,admin,1112072,False,Large
Mwanza,-2.5167,32.9,Tanzania,TZA,Mwanza,admin,1104521,False,Large
Biên Hòa,10.95,106.8167,Vietnam,VNM,Đồng Nai,admin,1104000,False,Large
Mexicali,32.6633,-115.4678,Mexico,MEX,Baja California,admin,1102342,False,Large
Sevilla,37.39,-5.99,Spain,ESP,Andalusia,admin,1100000,False,Large
Ikare,7.5167,5.75,Nigeria,NGA,Ondo,minor,1099931,False,Large
Dongtai,32.795,120.519,China,CHN,Jiangsu,minor,1098100,False,Large
Dingzhou,38.516,114.99,China,CHN,Hebei,minor,1095986,False,Large
Xibeijie,39.7334,98.4943,China,CHN,Gansu,minor,1095947,False,Large
Tamale,9.4075,-0.8533,Ghana,GHA,Northern,admin,1095808,False,Large
Yuyao,30.05,121.15,China,CHN,Zhejiang,Not Capital,1095000,False,Large
Hanchuan,30.652,113.8274,China,CHN,Hubei,Not Capital,1092700,False,Large
Gongzhuling,43.5053,124.8224,China,CHN,Jilin,minor,1092692,False,Large
N’Djamena,12.11,15.05,Chad,TCD,N’Djamena,primary,1092066,False,Large
Ubungo,-6.7889,39.2056,Tanzania,TZA,Dar es Salaam,Not Capital,1086912,False,Large
Cologne,50.9364,6.9528,Germany,DEU,North Rhine-Westphalia,Not Capital,1084831,False,Large
Krasnoyarsk,56.0089,92.8719,Russia,RUS,Krasnoyarskiy Kray,admin,1083865,False,Large
Zhufeng,36.0,119.4167,China,CHN,Shandong,Not Capital,1081960,False,Large
Ezhou,30.3914,114.8949,China,CHN,Hubei,minor,1079353,False,Large
Astana,51.1472,71.4222,Kazakhstan,KAZ,Nur-Sultan,primary,1078362,False,Large
Nezahualcóyotl,19.4081,-99.0186,Mexico,MEX,México,minor,1077208,False,Large
Nouakchott,18.0858,-15.9785,Mauritania,MRT,Nouakchott Ouest,primary,1077169,False,Large
Hāora,22.58,88.3294,India,IND,West Bengal,Not Capital,1077075,False,Large
Tongjin,37.2333,127.2,"Korea, South",KOR,Gyeonggi,Not Capital,1076369,False,Large
Xiashi,30.5333,120.6833,China,CHN,Zhejiang,minor,1076199,False,Large
Yerevan,40.1814,44.5144,Armenia,ARM,Yerevan,primary,1075800,False,Large
Rānchi,23.36,85.33,India,IND,Jhārkhand,admin,1073440,False,Large
Richmond,37.5295,-77.4756,United States,USA,Virginia,admin,1073223,False,Large
Ciudad Nezahualcóyotl,19.4006,-99.0148,Mexico,MEX,México,Not Capital,1072676,False,Large
Gwalior,26.2124,78.1772,India,IND,Madhya Pradesh,Not Capital,1069276,False,Large
Ottawa,45.4247,-75.695,Canada,CAN,Ontario,primary,1068821,False,Large
Zhongwei,37.5002,105.1968,China,CHN,Ningxia,minor,1067336,False,Large
Oslo,59.9133,10.7389,Norway,NOR,Oslo,primary,1064235,False,Large
Goyang,37.65,126.8,"Korea, South",KOR,Gyeonggi,minor,1061929,False,Large
Sendai,38.2682,140.8694,Japan,JPN,Miyagi,admin,1061177,False,Large
Mizhou,35.99,119.3801,China,CHN,Shandong,minor,1060000,False,Large
Xishan,27.6461,113.497,China,CHN,Hunan,minor,1060000,False,Large
Barquisimeto,10.0636,-69.3347,Venezuela,VEN,Lara,admin,1059092,False,Large
Hegang,47.3501,130.298,China,CHN,Heilongjiang,minor,1058665,False,Large
Chandīgarh,30.75,76.78,India,IND,Chandīgarh,admin,1055450,False,Large
Voronezh,51.6717,39.2106,Russia,RUS,Voronezhskaya Oblast’,admin,1051995,False,Large
Managua,12.1364,-86.2514,Nicaragua,NIC,Managua,primary,1051236,False,Large
Haldwāni,29.22,79.52,India,IND,Uttarākhand,Not Capital,1050000,False,Large
Vijayavāda,16.5193,80.6305,India,IND,Andhra Pradesh,Not Capital,1048240,False,Large
Perm,58.0,56.3167,Russia,RUS,Permskiy Kray,admin,1048005,False,Large
Fangchenggang,21.6867,108.3547,China,CHN,Guangxi,minor,1046068,False,Large
Jiancheng,30.3931,104.5465,China,CHN,Sichuan,minor,1045900,False,Large
Cazenga,-8.8214,13.2911,Angola,AGO,Luanda,Not Capital,1045722,False,Large
Kisangani,0.5167,25.2,Congo (Kinshasa),COD,Tshopo,admin,1040000,False,Large
Shouguang,36.857,118.791,China,CHN,Shandong,Not Capital,1039205,False,Large
Memphis,35.1087,-89.9663,United States,USA,Tennessee,Not Capital,1037998,False,Large
São Luís,-2.5283,-44.3044,Brazil,BRA,Maranhão,admin,1037775,False,Large
Jodhpur,26.28,73.02,India,IND,Rājasthān,Not Capital,1033918,False,Large
Matola,-25.9667,32.4667,Mozambique,MOZ,Maputo,Not Capital,1032197,False,Large
Ogbomoso,8.1333,4.25,Nigeria,NGA,Oyo,minor,1032000,False,Large
Sanya,18.2533,109.5036,China,CHN,Hainan,minor,1031396,False,Large
Rangapukur,25.56,89.25,Bangladesh,BGD,Rangpur,Not Capital,1031388,False,Large
Ashgabat,37.9375,58.38,Turkmenistan,TKM,Aşgabat,primary,1030063,False,Large
Wutong,30.6333,120.5333,China,CHN,Zhejiang,minor,1029754,False,Large
Linhai,28.85,121.1167,China,CHN,Zhejiang,Not Capital,1028813,False,Large
Denizli,37.7833,29.0964,Turkey,TUR,Denizli,admin,1027782,False,Large
Niamey,13.515,2.1175,Niger,NER,Niamey,primary,1026848,False,Large
Shubrā al Khaymah,30.1286,31.2422,Egypt,EGY,Al Qalyūbīyah,Not Capital,1025569,False,Large
Wafangdian,39.6271,121.9796,China,CHN,Liaoning,Not Capital,1024876,False,Large
Zhongxiang,31.169,112.5853,China,CHN,Hubei,Not Capital,1022514,False,Large
Monrovia,6.3133,-10.8014,Liberia,LBR,Montserrado,primary,1021762,False,Large
San Cristóbal,7.7667,-72.2333,Venezuela,VEN,Táchira,admin,1015623,False,Large
Islamabad,33.6931,73.0639,Pakistan,PAK,Islamabad,primary,1014825,False,Large
Xinyi,22.3549,110.9468,China,CHN,Guangdong,Not Capital,1013900,False,Large
Thủ Đức,10.8266,106.7609,Vietnam,VNM,Hồ Chí Minh,minor,1013795,False,Large
Morelia,19.7683,-101.1894,Mexico,MEX,Michoacán,admin,1011704,False,Large
Odesa,46.4775,30.7326,Ukraine,UKR,Odeska Oblast,admin,1010537,False,Large
Raipur,21.2444,81.6306,India,IND,Chhattīsgarh,admin,1010087,False,Large
Changwon,35.2708,128.6631,"Korea, South",KOR,Gyeongnam,admin,1009998,False,Large
Arequipa,-16.4,-71.5333,Peru,PER,Arequipa,admin,1008290,False,Large
Volgograd,48.7086,44.5147,Russia,RUS,Volgogradskaya Oblast’,admin,1004763,False,Large
Zaoyang,32.129,112.772,China,CHN,Hubei,Not Capital,1004741,False,Large
Xingyi,25.092,104.8955,China,CHN,Guizhou,Not Capital,1004132,False,Large
Shuizhai,33.4433,114.8994,China,CHN,Henan,Not Capital,1003698,False,Large
Kota,25.18,75.83,India,IND,Rājasthān,Not Capital,1001694,False,Large
Quetta,30.1833,67.0,Pakistan,PAK,Balochistan,admin,1001205,False,Large
Quảng Hà,15.9333,108.2667,Vietnam,VNM,Quảng Nam,Not Capital,1000000,False,Medium
Domaa-Ahenkro,7.2833,-2.8833,Ghana,GHA,Bono,Not Capital,1000000,False,Medium
Bareilly,28.364,79.415,India,IND,Uttar Pradesh,Not Capital,1000000,False,Medium
Oklahoma City,35.4676,-97.5136,United States,USA,Oklahoma,admin,998806,False,Medium
Bordeaux,44.84,-0.58,France,FRA,Nouvelle-Aquitaine,admin,994920,False,Medium
Xingcheng,24.1347,115.73,China,CHN,Guangdong,minor,993000,False,Medium
Taixing,32.159,120.029,China,CHN,Jiangsu,minor,990200,False,Medium
Xinhualu,34.3964,113.7402,China,CHN,Henan,minor,989900,False,Medium
Lilongwe,-13.9833,33.7833,Malawi,MWI,Lilongwe,primary,989318,False,Medium
Port-au-Prince,18.5333,-72.3333,Haiti,HTI,Ouest,primary,987310,False,Medium
Yingcheng,24.21,113.401,China,CHN,Guangdong,minor,986400,False,Medium
Al Mijlad,11.0339,27.74,Sudan,SDN,West Kordofan,Not Capital,985000,False,Medium
Luocheng,22.7689,111.5697,China,CHN,Guangdong,minor,984100,False,Medium
Pekanbaru,0.5092,101.4453,Indonesia,IDN,Riau,admin,983356,False,Medium
Natal,-6.9838,-60.2699,Brazil,BRA,Amazonas,Not Capital,980588,False,Medium
Chiba,35.6073,140.1064,Japan,JPN,Chiba,admin,975014,False,Medium
Kirkuk,35.4667,44.3167,Iraq,IRQ,Karkūk,admin,975000,False,Medium
Hartford,41.7661,-72.6834,United States,USA,Connecticut,admin,974684,False,Medium
Huilong,31.87,121.703,China,CHN,Jiangsu,minor,972525,False,Medium
Wuchuan,21.441,110.779,China,CHN,Guangdong,Not Capital,972400,False,Medium
Dnipro,48.4675,35.04,Ukraine,UKR,Dnipropetrovska Oblast,admin,968502,False,Medium
Nārāyanganj,23.62,90.5,Bangladesh,BGD,Dhaka,Not Capital,967951,False,Medium
Gqeberha,-33.9581,25.6,South Africa,ZAF,Eastern Cape,Not Capital,967677,False,Medium
Málaga,36.7194,-4.42,Spain,ESP,Andalusia,minor,967250,False,Medium
Marrakech,31.63,-8.0089,Morocco,MAR,Marrakech-Safi,admin,966987,False,Medium
Cebu City,10.32,123.75,Philippines,PHL,Cebu,admin,964169,False,Medium
Louisville,38.1663,-85.6485,United States,USA,Kentucky,Not Capital,963812,False,Medium
Asmara,15.3228,38.925,Eritrea,ERI,Ma’ĭkel,primary,963000,False,Medium
Coimbatore,11.0167,76.9556,India,IND,Tamil Nādu,Not Capital,959823,False,Medium
Maceió,-9.6658,-35.735,Brazil,BRA,Alagoas,admin,957916,False,Medium
Nada,19.5209,109.5808,China,CHN,Hainan,minor,954259,False,Medium
Taishan,22.2486,112.785,China,CHN,Guangdong,Not Capital,953900,False,Medium
Teresina,-5.0949,-42.8042,Brazil,BRA,Piauí,admin,953172,False,Medium
Solāpur,17.68,75.92,India,IND,Mahārāshtra,Not Capital,951558,False,Medium
Freetown,8.4844,-13.2344,Sierra Leone,SLE,Western Area,primary,951000,False,Medium
Santo Domingo Este,18.4855,-69.8734,Dominican Republic,DOM,Ozama,admin,948855,False,Medium
Krasnodar,45.0333,38.9667,Russia,RUS,Krasnodarskiy Kray,admin,948827,False,Medium
Vientiane,17.98,102.63,Laos,LAO,Viangchan,primary,948487,False,Medium
Tangier,35.7767,-5.8039,Morocco,MAR,Tanger-Tétouan-Al Hoceïma,admin,947952,False,Medium
Anqiu,36.478,119.219,China,CHN,Shandong,Not Capital,947723,False,Medium
Kermānshāh,34.3325,47.0933,Iran,IRN,Kermānshāh,admin,946651,False,Medium
Feicheng,36.1861,116.7719,China,CHN,Shandong,Not Capital,946627,False,Medium
Kibanseke Première,-4.4419,15.395,Congo (Kinshasa),COD,Kinshasa,Not Capital,946372,False,Medium
Seberang Jaya,5.4083,100.3695,Malaysia,MYS,Pulau Pinang,Not Capital,946092,False,Medium
Buffalo,42.9018,-78.8487,United States,USA,New York,Not Capital,944589,False,Medium
Hubli,15.3502,75.1376,India,IND,Karnātaka,Not Capital,943788,False,Medium
El Alto,-16.5047,-68.1633,Bolivia,BOL,La Paz,Not Capital,943000,False,Medium
Çankaya,39.9244,32.8856,Turkey,TUR,Ankara,minor,942553,False,Medium
Hwasu-dong,37.1997,126.8314,"Korea, South",KOR,Gyeonggi,Not Capital,941489,False,Medium
Setagaya,35.6466,139.6532,Japan,JPN,Tōkyō,Not Capital,940071,False,Medium
Keçiören,40.0,32.8667,Turkey,TUR,Ankara,minor,939279,False,Medium
Jerusalem,31.7789,35.2256,Israel,ISR,Jerusalem,primary,936425,False,Medium
Khartoum North,15.6333,32.6333,Sudan,SDN,Khartoum,Not Capital,936349,False,Medium
Meishan,34.1736,112.839,China,CHN,Henan,minor,936000,False,Medium
Mushin,6.5333,3.35,Nigeria,NGA,Lagos,minor,935400,False,Medium
Trujillo,-8.112,-79.0288,Peru,PER,La Libertad,admin,935147,False,Medium
Kitakyūshū,33.8833,130.8833,Japan,JPN,Fukuoka,Not Capital,935084,False,Medium
Aguascalientes,21.876,-102.296,Mexico,MEX,Aguascalientes,admin,934424,False,Medium
New Orleans,30.0687,-89.9288,United States,USA,Louisiana,Not Capital,932759,False,Medium
Fort Worth,32.7817,-97.3474,United States,USA,Texas,Not Capital,924663,False,Medium
Taihe,30.8706,105.3784,China,CHN,Sichuan,minor,924531,False,Medium
Riga,56.9489,24.1064,Latvia,LVA,Rīga,primary,920643,False,Medium
Xin’an,34.286,118.355,China,CHN,Jiangsu,Not Capital,920628,False,Medium
Taihecun,45.771,131.003,China,CHN,Heilongjiang,minor,920471,False,Medium
Kashgar,39.4681,75.9938,China,CHN,Xinjiang,minor,920000,False,Medium
Sŏngnam,37.4333,127.15,"Korea, South",KOR,Gyeonggi,Not Capital,918771,False,Medium
Trichinopoly,10.7903,78.7047,India,IND,Tamil Nādu,Not Capital,916857,False,Medium
Cartagena,10.4,-75.5,Colombia,COL,Bolívar,admin,914552,False,Medium
Qingzhou,36.6853,118.4796,China,CHN,Shandong,Not Capital,914047,False,Medium
Naples,40.8333,14.25,Italy,ITA,Campania,admin,913462,False,Medium
Santiago del Estero,-27.7833,-64.2667,Argentina,ARG,Santiago del Estero,admin,911506,False,Medium
Naucalpan de Juárez,19.4753,-99.2378,Mexico,MEX,México,minor,910407,False,Medium
Daye,30.0961,114.9804,China,CHN,Hubei,Not Capital,909724,False,Medium
Hengzhou,22.6799,109.2614,China,CHN,Guangxi,minor,909400,False,Medium
Padang,-0.95,100.3531,Indonesia,IDN,Sumatera Barat,admin,909040,False,Medium
Bridgeport,41.1918,-73.1954,United States,USA,Connecticut,Not Capital,908251,False,Medium
Owerri,5.485,7.035,Nigeria,NGA,Imo,admin,908109,False,Medium
Zhuanghe,39.681,122.967,China,CHN,Liaoning,Not Capital,905852,False,Medium
Bobo-Dioulasso,11.1833,-4.2833,Burkina Faso,BFA,Hauts-Bassins,admin,903887,False,Medium
Ad Dammām,26.4333,50.1,Saudi Arabia,SAU,Ash Sharqīyah,admin,903312,False,Medium
Quzhou,28.9702,118.8593,China,CHN,Zhejiang,Not Capital,902767,False,Medium
Donetsk,48.0028,37.8053,Ukraine,UKR,Donetska Oblast,admin,901645,False,Medium
Ashmūn,30.2941,31.0342,Egypt,EGY,Al Minūfīyah,Not Capital,901191,False,Medium
Bunia,1.5667,30.25,Congo (Kinshasa),COD,Ituri,admin,900666,False,Medium
Jiaozhou,36.2647,120.0334,China,CHN,Shandong,Not Capital,900500,False,Medium
Campo Grande,-20.4839,-54.615,Brazil,BRA,Mato Grosso do Sul,admin,897938,False,Medium
Wuchang,44.924,127.158,China,CHN,Heilongjiang,minor,897705,False,Medium
São Gonçalo,-22.8269,-43.0539,Brazil,BRA,Rio de Janeiro,Not Capital,896744,False,Medium
Bucaramanga,7.1333,-73.0,Colombia,COL,Santander,admin,893040,False,Medium
Mérida,20.97,-89.62,Mexico,MEX,Yucatán,admin,892363,False,Medium
Yangchun,22.1704,111.7916,China,CHN,Guangdong,Not Capital,891800,False,Medium
Osmangazi,40.1983,29.06,Turkey,TUR,Bursa,minor,891250,False,Medium
Esenyurt,41.0342,28.68,Turkey,TUR,İstanbul,Not Capital,891120,False,Medium
Morādābād,28.8319,78.7764,India,IND,Uttar Pradesh,Not Capital,889810,False,Medium
Bangui,4.3733,18.5628,Central African Republic,CAF,Bangui,primary,889231,False,Medium
Abeokuta,7.1608,3.3483,Nigeria,NGA,Ogun,admin,888924,False,Medium
Cancún,21.1606,-86.8475,Mexico,MEX,Quintana Roo,minor,888797,False,Medium
Antipolo,14.5842,121.1763,Philippines,PHL,Rizal,admin,887399,False,Medium
Dengtalu,36.1386,114.1066,China,CHN,Henan,minor,887000,False,Medium
Taguig City,14.52,121.05,Philippines,PHL,Taguig,admin,886722,False,Medium
Tabūk,28.3972,36.5789,Saudi Arabia,SAU,Tabūk,admin,886036,False,Medium
Zhoushan,29.9856,122.2074,China,CHN,Zhejiang,minor,882932,False,Medium
Tucson,32.1541,-110.8787,United States,USA,Arizona,Not Capital,878320,False,Medium
As Sulaymānīyah,35.5572,45.4356,Iraq,IRQ,As Sulaymānīyah,admin,878146,False,Medium
Chihuahua,28.6369,-106.0769,Mexico,MEX,Chihuahua,admin,878062,False,Medium
Klang,3.0333,101.45,Malaysia,MYS,Selangor,Not Capital,878000,False,Medium
Tiruppūr,11.1085,77.3411,India,IND,Tamil Nādu,Not Capital,877778,False,Medium
Gurgaon,28.456,77.029,India,IND,Haryāna,Not Capital,876824,False,Medium
Ar Ramādī,33.4258,43.2992,Iraq,IRQ,Al Anbār,admin,874543,False,Medium
Hai’an,32.535,120.563,China,CHN,Jiangsu,minor,874334,False,Medium
Laiyang,36.9758,120.7136,China,CHN,Shandong,Not Capital,874127,False,Medium
Barinas,8.6333,-70.2,Venezuela,VEN,Barinas,admin,873962,False,Medium
Jalandhar,31.2569,75.4432,India,IND,Punjab,Not Capital,873725,False,Medium
Marseille,43.2964,5.37,France,FRA,Provence-Alpes-Côte d’Azur,admin,873076,False,Medium
Kaifeng Chengguanzhen,34.8519,114.3481,China,CHN,Henan,minor,872000,False,Medium
Eskişehir,39.7767,30.5206,Turkey,TUR,Eskişehir,admin,871187,False,Medium
Gaomi,36.3833,119.75,China,CHN,Shandong,Not Capital,868715,False,Medium
Lhasa,29.6534,91.1719,China,CHN,Tibet,admin,867891,False,Medium
Ipoh,4.5972,101.075,Malaysia,MYS,Perak,admin,866772,False,Medium
El Paso,31.8476,-106.43,United States,USA,Texas,Not Capital,865270,False,Medium
Saltillo,25.4231,-100.9919,Mexico,MEX,Coahuila,admin,864431,False,Medium
Dushanbe,38.5367,68.78,Tajikistan,TJK,Dushanbe,primary,863400,False,Medium
Ikeja,6.6,3.35,Nigeria,NGA,Lagos,admin,861300,False,Medium
El Dorado,24.808,-107.397,Mexico,MEX,Sinaloa,Not Capital,858638,False,Medium
Cochabamba,-17.3883,-66.1597,Bolivia,BOL,Cochabamba,admin,856198,False,Medium
Portsmouth,50.8058,-1.0872,United Kingdom,GBR,Portsmouth,Not Capital,855679,False,Medium
Tyumen,57.15,65.5333,Russia,RUS,Tyumenskaya Oblast’,admin,855600,False,Medium
Southampton,50.9025,-1.4042,United Kingdom,GBR,Southampton,Not Capital,855569,False,Medium
Hermosillo,29.0989,-110.9542,Mexico,MEX,Sonora,admin,855563,False,Medium
Wuxi,26.58,111.841,China,CHN,Hunan,minor,853197,False,Medium
Leping,28.978,117.152,China,CHN,Jiangxi,minor,852800,False,Medium
Cheongju,36.6333,127.4833,"Korea, South",KOR,Chungbuk,admin,852018,False,Medium
Shache,38.4261,77.25,China,CHN,Xinjiang,Not Capital,851374,False,Medium
Sale,34.0333,-6.8,Morocco,MAR,Rabat-Salé-Kénitra,Not Capital,850403,False,Medium
Hailun,47.4667,126.9667,China,CHN,Heilongjiang,minor,850000,False,Medium
Macheng,31.173,115.008,China,CHN,Hubei,Not Capital,849090,False,Medium
Akure,7.25,5.195,Nigeria,NGA,Ondo,admin,847903,False,Medium
Ilorin,8.5,4.55,Nigeria,NGA,Kwara,admin,847582,False,Medium
Erbil,36.1912,44.0092,Iraq,IRQ,Arbīl,admin,846000,False,Medium
Kathmandu,27.71,85.32,Nepal,NPL,बागमती प्रदेश,primary,845767,False,Medium
Saratov,51.5333,46.0167,Russia,RUS,Saratovskaya Oblast’,admin,845300,False,Medium
Iguaçu,-22.74,-43.47,Brazil,BRA,Rio de Janeiro,Not Capital,844583,False,Medium
Zijinglu,34.7667,112.9667,China,CHN,Henan,minor,843900,False,Medium
Turin,45.0792,7.6761,Italy,ITA,Piedmont,admin,841600,False,Medium
Yuci,37.6823,112.7281,China,CHN,Shanxi,Not Capital,840000,False,Medium
Dehui,44.535,125.703,China,CHN,Jilin,Not Capital,839786,False,Medium
Pietermaritzburg,-29.6167,30.3833,South Africa,ZAF,KwaZulu-Natal,admin,839327,False,Medium
Durban,-29.8833,31.05,South Africa,ZAF,KwaZulu-Natal,Not Capital,838634,False,Medium
Bhubaneshwar,20.2644,85.8281,India,IND,Odisha,admin,837737,False,Medium
Denpasar,-8.65,115.2167,Indonesia,IDN,Bali,admin,834881,False,Medium
Tongchuan,34.897,108.945,China,CHN,Shaanxi,minor,834437,False,Medium
João Pessoa,-7.12,-34.88,Brazil,BRA,Paraíba,admin,833932,False,Medium
Samarinda,-0.5,117.1378,Indonesia,IDN,Kalimantan Timur,admin,831460,False,Medium
Chengxiang,31.564,121.174,China,CHN,Jiangsu,minor,831113,False,Medium
Rongjiawan,29.1409,113.1087,China,CHN,Hunan,minor,826000,False,Medium
Weichanglu,37.1792,119.9333,China,CHN,Shandong,minor,824708,False,Medium
Sakai,34.5733,135.4831,Japan,JPN,Ōsaka,Not Capital,824408,False,Medium
Renqiu,38.686,116.084,China,CHN,Hebei,minor,822455,False,Medium
Omaha,41.2627,-96.0529,United States,USA,Nebraska,Not Capital,821345,False,Medium
Xindi,29.827,113.476,China,CHN,Hubei,Not Capital,819446,False,Medium
Wu’an,36.697,114.204,China,CHN,Hebei,Not Capital,819000,False,Medium
Qingping,34.539,113.391,China,CHN,Henan,minor,817000,False,Medium
Gaoyou,32.7847,119.4432,China,CHN,Jiangsu,minor,811800,False,Medium
São Bernardo do Campo,-23.7,-46.55,Brazil,BRA,São Paulo,Not Capital,810729,False,Medium
Hejian,38.4466,116.0995,China,CHN,Hebei,minor,810306,False,Medium
Puxi,35.2125,114.735,China,CHN,Henan,minor,809535,False,Medium
Bhayandar,19.29,72.85,India,IND,Mahārāshtra,Not Capital,809378,False,Medium
Androtsy,-24.1,46.3,Madagascar,MDG,Toliara,Not Capital,809313,False,Medium
Culiacán,24.8069,-107.3939,Mexico,MEX,Sinaloa,admin,808416,False,Medium
Cúcuta,7.8942,-72.5039,Colombia,COL,Norte de Santander,admin,806378,False,Medium
Danyang,32.0,119.586,China,CHN,Jiangsu,Not Capital,806300,False,Medium
Dongyang,29.2667,120.2167,China,CHN,Zhejiang,minor,804398,False,Medium
Kraków,50.0614,19.9372,Poland,POL,Małopolskie,admin,804237,False,Medium
Pasig City,14.5605,121.0765,Philippines,PHL,Pasig,admin,803159,False,Medium
Thessaloníki,40.6403,22.9347,Greece,GRC,Kentrikí Makedonía,admin,802572,False,Medium
Querétaro,20.5875,-100.3928,Mexico,MEX,Querétaro,admin,801940,False,Medium
Palermo,2.8917,-75.4375,Colombia,COL,Huila,minor,800000,False,Medium
Xigazê,29.25,88.8833,China,CHN,Tibet,minor,798153,False,Medium
Qamdo,31.143,97.17,China,CHN,Tibet,minor,798067,False,Medium
McAllen,26.2252,-98.2467,United States,USA,Texas,Not Capital,797341,False,Medium
Libreville,0.3903,9.4542,Gabon,GAB,Estuaire,primary,797003,False,Medium
Seyhan,36.9831,35.3328,Turkey,TUR,Adana,minor,795012,False,Medium
San Pedro Sula,15.5,-88.0333,Honduras,HND,Cortés,admin,793835,False,Medium
Niigata,37.9161,139.0364,Japan,JPN,Niigata,admin,790646,False,Medium
Hempstead,40.6629,-73.6089,United States,USA,New York,Not Capital,789763,False,Medium
Leeds,53.7975,-1.5436,United Kingdom,GBR,Leeds,Not Capital,789194,False,Medium
Hamamatsu,34.7108,137.7275,Japan,JPN,Shizuoka,Not Capital,788211,False,Medium
Pointe-Noire,-4.7975,11.8503,Congo (Brazzaville),COG,Pointe-Noire,admin,787799,False,Medium
Xiangxiang,27.7186,112.5502,China,CHN,Hunan,Not Capital,787216,False,Medium
Birmingham,33.5279,-86.7971,United States,USA,Alabama,Not Capital,782111,False,Medium
Chaohucun,31.6244,117.8902,China,CHN,Anhui,Not Capital,782000,False,Medium
Bucheon,37.5,126.7833,"Korea, South",KOR,Gyeonggi,minor,781119,False,Medium
Lubango,-14.9167,13.5,Angola,AGO,Huíla,admin,776249,False,Medium
Homs,34.7308,36.7094,Syria,SYR,Ḩimş,admin,775404,False,Medium
Bilbao,43.2569,-2.9236,Spain,ESP,Basque Country,minor,775000,False,Medium
Zouping,36.863,117.743,China,CHN,Shandong,Not Capital,774517,False,Medium
Frankfurt,50.1106,8.6822,Germany,DEU,Hesse,minor,773068,False,Medium
San Luis Potosí,22.1511,-100.9761,Mexico,MEX,San Luis Potosí,admin,772828,False,Medium
Dali,25.6065,100.2676,China,CHN,Yunnan,Not Capital,771128,False,Medium
Fuyang,30.0553,119.95,China,CHN,Zhejiang,minor,771000,False,Medium
Khŭjand,40.2833,69.6333,Tajikistan,TJK,Sughd,admin,770000,False,Medium
Korla,41.7259,86.1746,China,CHN,Xinjiang,minor,770000,False,Medium
Albuquerque,35.1054,-106.6465,United States,USA,New Mexico,Not Capital,769986,False,Medium
Hamhŭng,39.9167,127.5333,"Korea, North",PRK,Hamnam,admin,768551,False,Medium
Erzurum,39.9086,41.2769,Turkey,TUR,Erzurum,admin,767848,False,Medium
Zagreb,45.8131,15.9775,Croatia,HRV,"Zagreb, Grad",primary,767131,False,Medium
Al ‘Ayn,24.2075,55.7447,United Arab Emirates,ARE,Abū Z̧aby,Not Capital,766936,False,Medium
Songzi,30.174,111.757,China,CHN,Hubei,Not Capital,765911,False,Medium
Patiāla,30.34,76.38,India,IND,Punjab,Not Capital,763280,False,Medium
Laixi,36.8667,120.5333,China,CHN,Shandong,Not Capital,762900,False,Medium
Zhongba,31.771,104.755,China,CHN,Sichuan,minor,762140,False,Medium
Bahawalpur,29.3956,71.6836,Pakistan,PAK,Punjab,minor,762111,False,Medium
Qingnian,36.8494,115.7061,China,CHN,Shandong,minor,760781,False,Medium
Kaduna,10.5167,7.4333,Nigeria,NGA,Kaduna,admin,760084,False,Medium
Winnipeg,49.8844,-97.1464,Canada,CAN,Manitoba,admin,758515,False,Medium
Trabzon,41.005,39.7225,Turkey,TUR,Trabzon,admin,758237,False,Medium
Guangshui,31.617,113.826,China,CHN,Hubei,Not Capital,755910,False,Medium
Baardheere,2.3333,42.2833,Somalia,SOM,Gedo,Not Capital,755500,False,Medium
Shīshgarh,28.72,79.32,India,IND,Uttar Pradesh,Not Capital,753815,False,Medium
Nerima,35.7356,139.6517,Japan,JPN,Tōkyō,Not Capital,752608,False,Medium
Sizhan,38.9846,106.3828,China,CHN,Ningxia,Not Capital,751389,False,Medium
Ciudad Guayana,8.3667,-62.65,Venezuela,VEN,Bolívar,minor,751331,False,Medium
Natal,-5.7833,-35.2,Brazil,BRA,Rio Grande do Norte,admin,751300,False,Medium
Lichuan,30.291,108.9364,China,CHN,Hubei,Not Capital,750670,False,Medium
Licheng,31.4306,119.4788,China,CHN,Jiangsu,minor,749522,False,Medium
Santo André,-23.6572,-46.5333,Brazil,BRA,São Paulo,Not Capital,748919,False,Medium
Ōta-ku,35.5614,139.7161,Japan,JPN,Tōkyō,Not Capital,748081,False,Medium
Gaalkacyo,6.7697,47.4308,Somalia,SOM,Mudug,admin,745000,False,Medium
Thiruvananthapuram,8.5241,76.9366,India,IND,Kerala,admin,743691,False,Medium
Osasco,-23.5328,-46.7919,Brazil,BRA,São Paulo,Not Capital,743432,False,Medium
Nampula,-15.1167,39.2667,Mozambique,MOZ,Nampula,admin,743000,False,Medium
Pretoria,-25.7461,28.1881,South Africa,ZAF,Gauteng,primary,741651,False,Medium
Kyaukse,21.6131,96.1303,Burma,MMR,Mandalay,Not Capital,741071,False,Medium
Chengguan,35.4623,113.8054,China,CHN,Henan,minor,740435,False,Medium
Nehe,48.4833,124.8833,China,CHN,Heilongjiang,minor,740000,False,Medium
Cabinda,-5.56,12.19,Angola,AGO,Cabinda,admin,739182,False,Medium
Kumamoto,32.8031,130.7078,Japan,JPN,Kumamoto,admin,738385,False,Medium
Kermān,30.2911,57.0678,Iran,IRN,Kermān,admin,738374,False,Medium
Zunhua,40.189,117.966,China,CHN,Hebei,minor,737011,False,Medium
Orūmīyeh,37.5439,45.0647,Iran,IRN,Āz̄arbāyjān-e Gharbī,admin,736224,False,Medium
Wugang,26.7266,110.6319,China,CHN,Hunan,Not Capital,734870,False,Medium
Bağcılar,41.0344,28.8564,Turkey,TUR,İstanbul,Not Capital,734369,False,Medium
Quebec City,46.8139,-71.2081,Canada,CAN,Quebec,admin,733156,False,Medium
Shuangqiao,35.067,112.602,China,CHN,Henan,minor,733000,False,Medium
Umraniye,41.0311,29.1081,Turkey,TUR,İstanbul,Not Capital,732379,False,Medium
Yanggok,37.6333,127.2167,"Korea, South",KOR,Gyeonggi,Not Capital,732376,False,Medium
Tshikapa,-6.4167,20.8,Congo (Kinshasa),COD,Kasaï,admin,732000,False,Medium
Tulsa,36.1283,-95.9042,United States,USA,Oklahoma,Not Capital,731743,False,Medium
Osogbo,7.7667,4.5667,Nigeria,NGA,Osun,admin,731000,False,Medium
Comodoro Rivadavia,-45.8647,-67.4808,Argentina,ARG,Chubut,minor,730266,False,Medium
Nottingham,52.9561,-1.1512,United Kingdom,GBR,Nottingham,Not Capital,729977,False,Medium
Hamilton,43.2567,-79.8692,Canada,CAN,Ontario,Not Capital,729560,False,Medium
Langzhong,31.558,106.005,China,CHN,Sichuan,minor,728935,False,Medium
Cagayan de Oro,8.48,124.65,Philippines,PHL,Cagayan de Oro,admin,728402,False,Medium
Qian’an,39.999,118.701,China,CHN,Hebei,Not Capital,728160,False,Medium
Fresno,36.783,-119.7939,United States,USA,California,Not Capital,725276,False,Medium
An Najaf,32.0,44.33,Iraq,IRQ,An Najaf,admin,724700,False,Medium
Cencheng,22.9167,111.0,China,CHN,Guangxi,minor,724364,False,Medium
Sorocaba,-23.5017,-47.4581,Brazil,BRA,São Paulo,Not Capital,723574,False,Medium
Guli,28.9,120.0333,China,CHN,Zhejiang,Not Capital,723490,False,Medium
Sagamihara,35.5667,139.3667,Japan,JPN,Kanagawa,Not Capital,722973,False,Medium
Pīshbar,33.3886,59.9789,Iran,IRN,Khorāsān-e Jonūbī,Not Capital,720207,False,Medium
Okayama,34.65,133.9167,Japan,JPN,Okayama,admin,720043,False,Medium
Anlu,31.2667,113.6667,China,CHN,Hubei,minor,720000,False,Medium
Concepción,-36.8282,-73.0514,Chile,CHL,Biobío,admin,719944,False,Medium
Mississauga,43.6,-79.65,Canada,CAN,Ontario,Not Capital,717961,False,Medium
Changsha,22.3773,112.6982,China,CHN,Guangdong,minor,717700,False,Medium
Songyang,34.4553,113.0253,China,CHN,Henan,minor,717400,False,Medium
Lviv,49.8425,24.0322,Ukraine,UKR,Lvivska Oblast,admin,717273,False,Medium
Shihezi,44.3054,86.0804,China,CHN,Xinjiang,minor,717000,False,Medium
Vilnius,54.6872,25.28,Lithuania,LTU,Vilniaus Miestas,primary,716856,False,Medium
Marka,1.7133,44.7656,Somalia,SOM,Shabeellaha Hoose,admin,716361,False,Medium
Enugu,6.4528,7.5111,Nigeria,NGA,Enugu,admin,715774,False,Medium
Valenzuela,14.7,120.98,Philippines,PHL,Valenzuela,admin,714978,False,Medium
Yatou,37.1653,122.4867,China,CHN,Shandong,minor,714211,False,Medium
Uberlândia,-18.9231,-48.2886,Brazil,BRA,Minas Gerais,Not Capital,713232,False,Medium
Xichang,27.8944,102.2644,China,CHN,Sichuan,minor,712434,False,Medium
Zaporizhzhia,47.85,35.1175,Ukraine,UKR,Zaporizka Oblast,admin,710052,False,Medium
Bhiwandi,19.2967,73.0631,India,IND,Mahārāshtra,Not Capital,709665,False,Medium
George Town,5.4144,100.3292,Malaysia,MYS,Pulau Pinang,admin,708127,False,Medium
Bristol,51.4536,-2.5975,United Kingdom,GBR,"Bristol, City of",Not Capital,707412,False,Medium
Charleston,32.8168,-79.9687,United States,USA,South Carolina,Not Capital,706884,False,Medium
Sahāranpur,29.964,77.546,India,IND,Uttar Pradesh,Not Capital,705478,False,Medium
Dashiqiao,40.6167,122.5167,China,CHN,Liaoning,minor,704891,False,Medium
Yenimahalle,39.9719,32.8119,Turkey,TUR,Ankara,minor,704652,False,Medium
Warangal,17.9689,79.5941,India,IND,Telangāna,Not Capital,704570,False,Medium
Nampo,38.7333,125.4,"Korea, North",PRK,Namp’o,Not Capital,703317,False,Medium
Dasmariñas,14.33,120.94,Philippines,PHL,Cavite,Not Capital,703141,False,Medium
Jaboatão,-8.1803,-35.0014,Brazil,BRA,Pernambuco,Not Capital,702621,False,Medium
Chisinau,47.0228,28.8353,Moldova,MDA,Chişinău,primary,702300,False,Medium
Shiliguri,26.71,88.43,India,IND,West Bengal,Not Capital,701489,False,Medium
Boosaaso,11.2886,49.1819,Somalia,SOM,Bari,admin,700906,False,Medium
Port Moresby,-9.4789,147.1494,Papua New Guinea,PNG,National Capital,primary,700000,False,Medium
Latakia,35.5167,35.7833,Syria,SYR,Al Lādhiqīyah,admin,700000,False,Medium
Rochester,43.168,-77.6162,United States,USA,New York,Not Capital,699921,False,Medium
Ribeirão Prêto,-21.1783,-47.8067,Brazil,BRA,São Paulo,Not Capital,698259,False,Medium
Edogawa,35.7,139.8833,Japan,JPN,Chiba,Not Capital,697932,False,Medium
São José dos Campos,-23.1789,-45.8869,Brazil,BRA,São Paulo,Not Capital,697428,False,Medium
General Santos,6.12,125.17,Philippines,PHL,General Santos,admin,697315,False,Medium
Ḩamāh,35.1333,36.75,Syria,SYR,Ḩamāh,admin,696863,False,Medium
Qianxi,27.0087,106.0323,China,CHN,Guizhou,Not Capital,695947,False,Medium
Bauchi,10.3158,9.8442,Nigeria,NGA,Bauchi,admin,693700,False,Medium
Pendik,40.8747,29.235,Turkey,TUR,İstanbul,minor,693599,False,Medium
Salem,11.65,78.15,India,IND,Tamil Nādu,Not Capital,693236,False,Medium
Shishi,24.7167,118.7,China,CHN,Fujian,minor,693000,False,Medium
Sinnūris,29.4072,30.8667,Egypt,EGY,Al Fayyūm,Not Capital,692701,False,Medium
Cocody,5.35,-3.9667,Côte d’Ivoire,CIV,Abidjan,Not Capital,692583,False,Medium
Miluo Chengguanzhen,28.761,113.16,China,CHN,Hunan,minor,692080,False,Medium
Lokoja,7.8019,6.7442,Nigeria,NGA,Kogi,admin,692050,False,Medium
Guadalupe,25.6775,-100.2597,Mexico,MEX,Nuevo León,minor,691931,False,Medium
Gaizhou,40.4,122.35,China,CHN,Liaoning,minor,691595,False,Medium
Karbalā’,32.6167,44.0333,Iraq,IRQ,Karbalā’,admin,690100,False,Medium
Borvāyeh-ye Al Bū ‘Azīz,31.6283,48.6147,Iran,IRN,Khūzestān,Not Capital,690000,False,Medium
City of Parañaque,14.5008,120.9915,Philippines,PHL,Parañaque,admin,689992,False,Medium
Leling,37.73,117.232,China,CHN,Shandong,minor,689867,False,Medium
Mamak,39.9422,32.9231,Turkey,TUR,Ankara,minor,687535,False,Medium
Jianshe,34.2137,113.7629,China,CHN,Henan,minor,687130,False,Medium
Tolyatti,53.5089,49.4222,Russia,RUS,Samarskaya Oblast’,Not Capital,685619,False,Medium
Shizuoka,34.9756,138.3828,Japan,JPN,Shizuoka,admin,685589,False,Medium
Jingcheng,32.009,120.263,China,CHN,Jiangsu,minor,684360,False,Medium
Agege,6.6219,3.3258,Nigeria,NGA,Lagos,minor,683600,False,Medium
Mar del Plata,-38.0,-57.55,Argentina,ARG,Buenos Aires,minor,682605,False,Medium
Zaragoza,41.65,-0.8833,Spain,ESP,Aragon,admin,682513,False,Medium
Adachi,35.7833,139.8,Japan,JPN,Tōkyō,Not Capital,682326,False,Medium
Xinmin,41.997,122.823,China,CHN,Liaoning,Not Capital,680000,False,Medium
Rasht,37.2744,49.5889,Iran,IRN,Gīlān,admin,679995,False,Medium
Shanhu,29.6,120.8167,China,CHN,Zhejiang,minor,679762,False,Medium
Zhongshu,27.7919,106.4013,China,CHN,Guizhou,Not Capital,679624,False,Medium
Cotonou,6.3667,2.4333,Benin,BEN,Littoral,primary,679012,False,Medium
Tasikmalaya,-7.3161,108.1975,Indonesia,IDN,Jawa Barat,Not Capital,678027,False,Medium
Kochi,9.9312,76.2673,India,IND,Kerala,Not Capital,677381,False,Medium
Soledad,10.9167,-74.75,Colombia,COL,Atlántico,minor,676014,False,Medium
Dhūlia,20.8997,74.7697,India,IND,Mahārāshtra,Not Capital,675000,False,Medium
Acapulco de Juárez,16.8636,-99.8825,Mexico,MEX,Guerrero,minor,673478,False,Medium
Gorakhpur,26.7637,83.4039,India,IND,Uttar Pradesh,Not Capital,673446,False,Medium
Bahār,34.9028,48.4425,Iran,IRN,Hamadān,minor,673405,False,Medium
Kumul,42.8193,93.5151,China,CHN,Xinjiang,minor,673383,False,Medium
Wrocław,51.11,17.0325,Poland,POL,Dolnośląskie,admin,672929,False,Medium
Murcia,37.9861,-1.1303,Spain,ESP,Murcia,admin,672773,False,Medium
Pinghu,30.7005,121.0104,China,CHN,Zhejiang,Not Capital,671834,False,Medium
Guankou,30.988,103.647,China,CHN,Sichuan,Not Capital,671200,False,Medium
Łódź,51.7769,19.4547,Poland,POL,Łódzkie,admin,670642,False,Medium
Guntūr,16.3008,80.4428,India,IND,Andhra Pradesh,Not Capital,670073,False,Medium
Bhāngar,22.58,88.42,India,IND,West Bengal,Not Capital,670000,False,Medium
Dayton,39.7805,-84.2003,United States,USA,Ohio,Not Capital,668825,False,Medium
Ch’ŏngjin,41.7833,129.7667,"Korea, North",PRK,Hambuk,admin,667929,False,Medium
Qionghu,28.945,112.598,China,CHN,Hunan,minor,667104,False,Medium
Zhaodong,46.051,125.962,China,CHN,Heilongjiang,minor,666532,False,Medium
Puyang Chengguanzhen,35.7004,114.98,China,CHN,Henan,minor,666322,False,Medium
Bulawayo,-20.17,28.58,Zimbabwe,ZWE,Bulawayo,admin,665940,False,Medium
Huambo,-12.7767,15.7347,Angola,AGO,Huambo,admin,665564,False,Medium
Aracaju,-10.9167,-37.05,Brazil,BRA,Sergipe,admin,664908,False,Medium
Bacoor,14.4624,120.9645,Philippines,PHL,Cavite,Not Capital,664625,False,Medium
Wenchang,31.054,116.9507,China,CHN,Anhui,minor,664455,False,Medium
Rotterdam,51.92,4.48,Netherlands,NLD,Zuid-Holland,minor,664311,False,Medium
Tlaquepaque,20.6167,-103.3167,Mexico,MEX,Jalisco,minor,664193,False,Medium
Villavicencio,4.15,-73.6333,Colombia,COL,Meta,admin,664148,False,Medium
Shulan,44.4059,126.9655,China,CHN,Jilin,minor,663403,False,Medium
Makhachkala,42.9667,47.4833,Russia,RUS,Dagestan,admin,662600,False,Medium
Banjarmasin,-3.32,114.5925,Indonesia,IDN,Kalimantan Selatan,admin,662230,False,Medium
Narela,28.8527,77.0929,India,IND,Delhi,Not Capital,661994,False,Medium
Catia La Mar,10.6,-67.0333,Venezuela,VEN,La Guaira,minor,661897,False,Medium
Al Hufūf,25.3833,49.5833,Saudi Arabia,SAU,Ash Sharqīyah,Not Capital,660788,False,Medium
Jalingo,8.9,11.3667,Nigeria,NGA,Taraba,admin,660213,False,Medium
Sargodha,32.0836,72.6711,Pakistan,PAK,Punjab,minor,659862,False,Medium
Karaikandi,24.8309,92.6143,India,IND,Assam,Not Capital,659260,False,Medium
Bouaké,7.6833,-5.0167,Côte d’Ivoire,CIV,Vallée du Bandama,admin,659233,False,Medium
Lingbao Chengguanzhen,34.5176,110.8942,China,CHN,Henan,minor,656571,False,Medium
Brampton,43.6833,-79.7667,Canada,CAN,Ontario,Not Capital,656480,False,Medium
Abomey-Calavi,6.4486,2.3556,Benin,BEN,Atlantique,Not Capital,655965,False,Medium
Durango,24.025,-104.6675,Mexico,MEX,Durango,admin,654876,False,Medium
Cape Coral,26.6443,-81.9957,United States,USA,Florida,Not Capital,654405,False,Medium
Tondo,14.617,120.967,Philippines,PHL,Manila,Not Capital,654220,False,Medium
Dayrūţ,27.5667,30.8167,Egypt,EGY,Asyūţ,Not Capital,653847,False,Medium
Tlalnepantla,19.5367,-99.1947,Mexico,MEX,México,minor,653410,False,Medium
Ansan,37.3167,126.8333,"Korea, South",KOR,Gyeonggi,Not Capital,652800,False,Medium
Xiping,25.6005,103.8166,China,CHN,Yunnan,minor,652604,False,Medium
Huế,16.4667,107.5792,Vietnam,VNM,Thừa Thiên-Huế,admin,652572,False,Medium
Sanhe,40.0167,117.0833,China,CHN,Hebei,minor,652042,False,Medium
San Jose del Monte,14.8139,121.0453,Philippines,PHL,Bulacan,Not Capital,651813,False,Medium
Ch’ŏnan,36.81,127.1475,"Korea, South",KOR,Chungnam,Not Capital,651661,False,Medium
Cuiabá,-15.5958,-56.0969,Brazil,BRA,Mato Grosso,admin,650912,False,Medium
Jieshou,33.257,115.3746,China,CHN,Anhui,Not Capital,650870,False,Medium
Ērer Sātā,9.5667,41.3833,Ethiopia,ETH,Sumalē,Not Capital,649000,False,Medium
Selçuklu,37.8814,32.4922,Turkey,TUR,Konya,minor,648850,False,Medium
Suohe,34.7833,113.35,China,CHN,Henan,minor,648700,False,Medium
Guixi,28.2925,117.2454,China,CHN,Jiangxi,minor,647240,False,Medium
Izhevsk,56.8333,53.1833,Russia,RUS,Udmurtiya,admin,646277,False,Medium
Honchō,35.6946,139.9826,Japan,JPN,Chiba,Not Capital,644668,False,Medium
Wuxue,29.844,115.561,China,CHN,Hubei,minor,644247,False,Medium
Jaboatão dos Guararapes,-8.1122,-35.0156,Brazil,BRA,Pernambuco,minor,643759,False,Medium
Yıldırım,40.11,29.0821,Turkey,TUR,Bursa,minor,643681,False,Medium
Bhāvnagar,21.76,72.15,India,IND,Gujarāt,Not Capital,643365,False,Medium
Jinghong,22.009,100.797,China,CHN,Yunnan,minor,642737,False,Medium
Tengyue,25.0167,98.4833,China,CHN,Yunnan,minor,642481,False,Medium
Mission Viejo,33.6096,-117.6551,United States,USA,California,Not Capital,642211,False,Medium
Ruiming,25.886,116.027,China,CHN,Jiangxi,Not Capital,640600,False,Medium
Qufu,35.5819,116.9862,China,CHN,Shandong,Not Capital,640498,False,Medium
Sha Tin,22.3802,114.1898,Hong Kong,HKG,香港 Hong Kong,Not Capital,640000,False,Medium
Petaling Jaya,3.0972,101.6444,Malaysia,MYS,Selangor,Not Capital,638516,False,Medium
Colorado Springs,38.8674,-104.7605,United States,USA,Colorado,Not Capital,638194,False,Medium
Noida,28.57,77.32,India,IND,Uttar Pradesh,Not Capital,637272,False,Medium
Xinshi,31.1333,113.1167,China,CHN,Hubei,minor,636776,False,Medium
Baton Rouge,30.442,-91.1311,United States,USA,Louisiana,admin,635671,False,Medium
Manama,26.225,50.5775,Bahrain,BHR,Al ‘Āşimah,primary,635000,False,Medium
Las Palmas,28.1258,-15.4353,Spain,ESP,Canary Islands,admin,635000,False,Medium
Chak Forty-one,31.0167,73.85,Pakistan,PAK,Punjab,Not Capital,634236,False,Medium
Jin’e,29.3394,105.2875,China,CHN,Sichuan,minor,633210,False,Medium
Benghazi,32.1167,20.0667,Libya,LBY,Banghāzī,admin,631555,False,Medium
Chuxiong,25.033,101.5459,China,CHN,Yunnan,Not Capital,631530,False,Medium
Barnaul,53.3486,83.7764,Russia,RUS,Altayskiy Kray,admin,631124,False,Medium
Palermo,38.1111,13.3517,Italy,ITA,Sicilia,admin,630167,False,Medium
Makati City,14.5567,121.0214,Philippines,PHL,Makati,admin,629616,False,Medium
Düsseldorf,51.2333,6.7833,Germany,DEU,North Rhine-Westphalia,admin,629047,False,Medium
Allentown,40.5961,-75.4756,United States,USA,Pennsylvania,Not Capital,627863,False,Medium
Xinxing,39.8667,124.15,China,CHN,Liaoning,minor,627475,False,Medium
Ţūkh,30.3539,31.2007,Egypt,EGY,Al Qalyūbīyah,Not Capital,627290,False,Medium
Glasgow,55.8611,-4.25,United Kingdom,GBR,Glasgow City,Not Capital,626410,False,Medium
Namangan,41.0011,71.6683,Uzbekistan,UZB,Namangan,admin,626120,False,Medium
Bazal’tove,50.6765,26.16,Ukraine,UKR,Rivnenska Oblast,Not Capital,625543,False,Medium
Al Qaţīf,26.556,49.996,Saudi Arabia,SAU,Ash Sharqīyah,Not Capital,625092,False,Medium
Bhilai,21.21,81.38,India,IND,Chhattīsgarh,Not Capital,624700,False,Medium
Ulyanovsk,54.3167,48.3667,Russia,RUS,Ul’yanovskaya Oblast’,admin,624518,False,Medium
Mangalore,12.8681,74.8425,India,IND,Karnātaka,Not Capital,623841,False,Medium
Kaihua,23.387,104.233,China,CHN,Yunnan,minor,623772,False,Medium
Irkutsk,52.2833,104.2833,Russia,RUS,Irkutskaya Oblast’,admin,623736,False,Medium
Meilan,19.999,110.403,China,CHN,Hainan,Not Capital,623667,False,Medium
Bazhou,39.1333,116.3833,China,CHN,Hebei,minor,622975,False,Medium
Ogden,41.2279,-111.9682,United States,USA,Utah,Not Capital,622918,False,Medium
Turpan,42.9512,89.1895,China,CHN,Xinjiang,minor,622903,False,Medium
Jos,9.9167,8.8903,Nigeria,NGA,Plateau,admin,622802,False,Medium
Al Manşūrah,31.05,31.3833,Egypt,EGY,Ad Daqahlīyah,admin,621953,False,Medium
Contagem,-19.9319,-44.0539,Brazil,BRA,Minas Gerais,Not Capital,621865,False,Medium
Jambi,-1.59,103.61,Indonesia,IDN,Jambi,admin,619553,False,Medium
Ḩalwān,29.8453,31.3333,Egypt,EGY,Al Qāhirah,Not Capital,619293,False,Medium
Provo,40.2457,-111.6457,United States,USA,Utah,Not Capital,619218,False,Medium
Tân An,10.905,106.6994,Vietnam,VNM,Hồ Chí Minh,Not Capital,618984,False,Medium
Port-Bouët,5.2667,-3.9,Côte d’Ivoire,CIV,Abidjan,Not Capital,618795,False,Medium
Pontianak,-0.0206,109.3414,Indonesia,IDN,Kalimantan Barat,admin,618388,False,Medium
Meihekou,42.5407,125.7107,China,CHN,Jilin,minor,618251,False,Medium
Jurong,31.946,119.164,China,CHN,Jiangsu,Not Capital,617706,False,Medium
Bihtā,25.5619,84.87,India,IND,Bihār,Not Capital,617427,False,Medium
Yuhuan,28.1277,121.2288,China,CHN,Zhejiang,Not Capital,616346,False,Medium
Joinvile,-26.3204,-48.8437,Brazil,BRA,Santa Catarina,Not Capital,616323,False,Medium
Feira de Santana,-12.25,-38.95,Brazil,BRA,Bahia,minor,616279,False,Medium
Khabarovsk,48.4833,135.0833,Russia,RUS,Khabarovskiy Kray,admin,616242,False,Medium
Leipzig,51.34,12.375,Germany,DEU,Saxony,minor,616093,False,Medium
Xinji,37.943,115.218,China,CHN,Hebei,minor,615919,False,Medium
Knoxville,35.9692,-83.9496,United States,USA,Tennessee,Not Capital,615829,False,Medium
Ta‘izz,13.5789,44.0219,Yemen,YEM,Ta‘izz,admin,615467,False,Medium
Etimesgut,39.9458,32.6694,Turkey,TUR,Ankara,minor,614891,False,Medium
Changping,40.2248,116.1944,China,CHN,Beijing,Not Capital,614821,False,Medium
Tallinn,59.4372,24.7453,Estonia,EST,Tallinn,primary,614561,False,Medium
Chimalhuacán,19.4167,-98.9,Mexico,MEX,México,minor,614453,False,Medium
Kandahār,31.62,65.7158,Afghanistan,AFG,Kandahār,admin,614254,False,Medium
Serang,-6.12,106.1503,Indonesia,IDN,Banten,admin,613356,False,Medium
Zhangshu,28.0546,115.5462,China,CHN,Jiangxi,Not Capital,610424,False,Medium
Grand Rapids,42.9619,-85.6562,United States,USA,Michigan,Not Capital,609023,False,Medium
Yukarıkaraman,36.9167,30.6833,Turkey,TUR,Antalya,Not Capital,608675,False,Medium
Gothenburg,57.7075,11.9675,Sweden,SWE,Västra Götaland,admin,607882,False,Medium
Kuantan,3.8167,103.3333,Malaysia,MYS,Pahang,admin,607778,False,Medium
Gold Coast,-28.0167,153.4,Australia,AUS,Queensland,Not Capital,607665,False,Medium
Kawaguchi,35.8077,139.7241,Japan,JPN,Saitama,Not Capital,607373,False,Medium
Las Piñas City,14.45,120.98,Philippines,PHL,Las Piñas,Not Capital,606293,False,Medium
Cuttack,20.5236,85.7881,India,IND,Odisha,Not Capital,606007,False,Medium
San Miguel de Tucumán,-26.8167,-65.2167,Argentina,ARG,Tucumán,admin,605767,False,Medium
Ar Rayyān,25.25,51.4,Qatar,QAT,Ar Rayyān,admin,605712,False,Medium
Salīmpur,26.3,83.9167,India,IND,Uttar Pradesh,Not Capital,604483,False,Medium
Malanje,-9.5333,16.35,Angola,AGO,Malanje,admin,604215,False,Medium
Columbia,34.0378,-80.9036,United States,USA,South Carolina,admin,604065,False,Medium
Kryvyi Rih,47.91,33.39,Ukraine,UKR,Dnipropetrovska Oblast,minor,603904,False,Medium
Djibouti,11.5883,43.145,Djibouti,DJI,Djibouti,primary,603900,False,Medium
Zhuozhou,39.485,115.974,China,CHN,Hebei,minor,603535,False,Medium
Tianchang,32.6811,119.0137,China,CHN,Anhui,minor,602840,False,Medium
Tunis,36.8064,10.1817,Tunisia,TUN,Tunis,primary,602560,False,Medium
Yaroslavl,57.6167,39.85,Russia,RUS,Yaroslavskaya Oblast’,admin,601403,False,Medium
Bacolod,10.6765,122.9509,Philippines,PHL,Bacolod,admin,600783,False,Medium
Garoua,9.3,13.4,Cameroon,CMR,Nord,admin,600000,False,Medium
Bafoussam,5.4667,10.4167,Cameroon,CMR,Ouest,admin,600000,False,Medium
Haifa,32.8192,34.9992,Israel,ISR,Haifa,admin,600000,False,Medium
Raurkela,22.2492,84.8828,India,IND,Odisha,Not Capital,600000,False,Medium
Tumkūr,13.34,77.1,India,IND,Karnātaka,Not Capital,599078,False,Medium
Balikpapan,-1.2768,116.8277,Indonesia,IDN,Kalimantan Timur,Not Capital,598043,False,Medium
Somolu,6.5408,3.3872,Nigeria,NGA,Lagos,minor,597400,False,Medium
Vladivostok,43.1333,131.9,Russia,RUS,Primorskiy Kray,admin,597240,False,Medium
Al Ḩillah,23.4895,46.7564,Saudi Arabia,SAU,Ar Riyāḑ,Not Capital,594605,False,Medium
Melikgazi,38.7167,35.5,Turkey,TUR,Kayseri,minor,594344,False,Medium
Kagoshima,31.6,130.55,Japan,JPN,Kagoshima,admin,593754,False,Medium
Sihui,23.3265,112.7338,China,CHN,Guangdong,Not Capital,593400,False,Medium
Dortmund,51.5139,7.4653,Germany,DEU,North Rhine-Westphalia,minor,593317,False,Medium
Irapuato,20.6667,-101.35,Mexico,MEX,Guanajuato,minor,592953,False,Medium
Al Maḩallah al Kubrá,30.9686,31.1636,Egypt,EGY,Al Gharbīyah,Not Capital,592573,False,Medium
Sialkot City,32.4925,74.5311,Pakistan,PAK,Punjab,minor,591668,False,Medium
Luocheng,30.99,104.25,China,CHN,Sichuan,minor,591115,False,Medium
Albany,42.6664,-73.7987,United States,USA,New York,admin,590694,False,Medium
Pereira,4.8143,-75.6946,Colombia,COL,Risaralda,admin,590554,False,Medium
Gaza,31.5069,34.456,Gaza Strip,XGZ,قطاع غزة,primary,590481,False,Medium
Uvira,-3.4,29.15,Congo (Kinshasa),COD,Sud-Kivu,Not Capital,590000,False,Medium
Reynosa,26.0922,-98.2778,Mexico,MEX,Tamaulipas,minor,589466,False,Medium
Zāhedān,29.5025,60.8558,Iran,IRN,Sīstān va Balūchestān,admin,587730,False,Medium
Cimahi,-6.8712,107.5548,Indonesia,IDN,Jawa Barat,Not Capital,586580,False,Medium
Mbale,1.0806,34.175,Uganda,UGA,Mbale,admin,586300,False,Medium
Wenlan,23.3961,103.3649,China,CHN,Yunnan,minor,585976,False,Medium
Shangzhi,45.2116,127.962,China,CHN,Heilongjiang,minor,585386,False,Medium
Essen,51.4508,7.0131,Germany,DEU,North Rhine-Westphalia,minor,584580,False,Medium
Itabashi,35.7667,139.6833,Japan,JPN,Tōkyō,Not Capital,584483,False,Medium
Shah Alam,3.0722,101.5167,Malaysia,MYS,Selangor,admin,584340,False,Medium
Botou,38.0833,116.5833,China,CHN,Hebei,minor,584308,False,Medium
Suginami-ku,35.6994,139.6364,Japan,JPN,Tōkyō,Not Capital,583609,False,Medium
Tenkāsi,8.9564,77.3152,India,IND,Tamil Nādu,Not Capital,580000,False,Medium
Kingston,17.9714,-76.7931,Jamaica,JAM,Kingston,primary,580000,False,Medium
Al Mafraq,32.3399,36.2052,Jordan,JOR,Al Mafraq,admin,580000,False,Medium
Aţ Ţā’if,21.2751,40.4062,Saudi Arabia,SAU,Makkah al Mukarramah,Not Capital,579970,False,Medium
Port Sudan,19.6167,37.2167,Sudan,SDN,Red Sea,admin,579942,False,Medium
Tuxtla,16.7528,-93.1167,Mexico,MEX,Chiapas,admin,578830,False,Medium
Dehra Dūn,30.345,78.029,India,IND,Uttarākhand,admin,578420,False,Medium
Xiulin,29.7209,112.4254,China,CHN,Hubei,Not Capital,577022,False,Medium
Fu’an,27.1,119.6333,China,CHN,Fujian,minor,577000,False,Medium
Mymensingh,24.7539,90.4031,Bangladesh,BGD,Mymensingh,admin,576927,False,Medium
Hachiōji,35.6664,139.316,Japan,JPN,Tōkyō,Not Capital,575721,False,Medium
Iloilo,10.72,122.57,Philippines,PHL,Iloilo,admin,574000,False,Medium
Puente Alto,-33.6167,-70.5667,Chile,CHL,Región Metropolitana,minor,573935,False,Medium
Tomsk,56.5,84.9667,Russia,RUS,Tomskaya Oblast’,admin,572740,False,Medium
Rabat,34.0209,-6.8416,Morocco,MAR,Rabat-Salé-Kénitra,primary,572717,False,Medium
Sincan,39.9594,32.5767,Turkey,TUR,Ankara,minor,572609,False,Medium
Bakersfield,35.3529,-119.0359,United States,USA,California,Not Capital,571992,False,Medium
Kottayam,9.5916,76.5222,India,IND,Kerala,Not Capital,571856,False,Medium
Luofeng,37.359,120.396,China,CHN,Shandong,minor,570898,False,Medium
Shibīn al Qanāţir,30.3133,31.3214,Egypt,EGY,Al Qalyūbīyah,Not Capital,570868,False,Medium
Nakuru,-0.3,36.0667,Kenya,KEN,Nakuru,admin,570674,False,Medium
Lingyuan,41.25,119.4,China,CHN,Liaoning,Not Capital,570660,False,Medium
Tonalá,20.6167,-103.2333,Mexico,MEX,Jalisco,minor,569913,False,Medium
Bremen,53.0758,8.8072,Germany,DEU,Bremen,admin,569396,False,Medium
Abū Ḩummuş,31.1006,30.3128,Egypt,EGY,Al Buḩayrah,Not Capital,569157,False,Medium
Irbid,32.55,35.85,Jordan,JOR,Irbid,admin,569068,False,Medium
Macau,22.2006,113.5461,Macau,MAC,澳門 Macau,Not Capital,568700,False,Medium
Surrey,49.19,-122.8489,Canada,CAN,British Columbia,Not Capital,568322,False,Medium
Ciudad Bolívar,8.1219,-63.55,Venezuela,VEN,Bolívar,admin,567953,False,Medium
Durgāpur,23.55,87.32,India,IND,West Bengal,Not Capital,566937,False,Medium
Shenzhou,38.002,115.56,China,CHN,Hebei,minor,566087,False,Medium
New Haven,41.3113,-72.9246,United States,USA,Connecticut,Not Capital,565572,False,Medium
Orenburg,51.7833,55.1,Russia,RUS,Orenburgskaya Oblast’,admin,564773,False,Medium
Kuiju,36.8667,119.4,China,CHN,Shandong,minor,564501,False,Medium
Zhenzhou,32.2723,119.1848,China,CHN,Jiangsu,minor,564021,False,Medium
Āsansol,23.68,86.99,India,IND,West Bengal,Not Capital,563917,False,Medium
Bokaro Steel City,23.67,86.15,India,IND,Jhārkhand,Not Capital,563417,False,Medium
Dresden,51.05,13.74,Germany,DEU,Saxony,admin,563311,False,Medium
Bello,6.3333,-75.5667,Colombia,COL,Antioquia,minor,561955,False,Medium
Kolhāpur,16.6917,74.2333,India,IND,Mahārāshtra,Not Capital,561489,False,Medium
Wencheng,19.617,110.7551,China,CHN,Hainan,minor,560894,False,Medium
Lanxi,29.208,119.458,China,CHN,Zhejiang,Not Capital,560514,False,Medium
Dangyang,30.821,111.789,China,CHN,Hubei,Not Capital,560000,False,Medium
Nava Raipur,21.161,81.787,India,IND,Chhattīsgarh,Not Capital,560000,False,Medium
Kemerovo,55.3667,86.0667,Russia,RUS,Kemerovskaya Oblast’,admin,558973,False,Medium
Genoa,44.4111,8.9328,Italy,ITA,Liguria,admin,558745,False,Medium
Herāt,34.3419,62.2031,Afghanistan,AFG,Herāt,admin,556205,False,Medium
Londrina,-23.31,-51.1628,Brazil,BRA,Paraná,Not Capital,555937,False,Medium
Cuautitlán Izcalli,19.65,-99.25,Mexico,MEX,México,minor,555163,False,Medium
Uyo,5.0333,7.9275,Nigeria,NGA,Akwa Ibom,admin,554906,False,Medium
Hamadān,34.8064,48.5161,Iran,IRN,Hamadān,admin,554406,False,Medium
Luanzhou,39.741,118.704,China,CHN,Hebei,minor,554315,False,Medium
Chiclayo,-6.763,-79.8366,Peru,PER,Lambayeque,admin,552508,False,Medium
Surakarta,-7.5667,110.8167,Indonesia,IDN,Jawa Tengah,Not Capital,552118,False,Medium
Novokuznetsk,53.7667,87.1333,Russia,RUS,Kemerovskaya Oblast’,Not Capital,552105,False,Medium
Ajmer,26.4499,74.6399,India,IND,Rājasthān,Not Capital,551101,False,Medium
Kimhae,35.2342,128.8811,"Korea, South",KOR,Gyeongnam,Not Capital,550758,False,Medium
Nānded,19.15,77.3,India,IND,Mahārāshtra,Not Capital,550439,False,Medium
Wuhai,39.655,106.794,China,CHN,Inner Mongolia,minor,550000,False,Medium
Palma,39.5667,2.65,Spain,ESP,Balearic Islands,admin,550000,False,Medium
Rustenburg,-25.6667,27.2428,South Africa,ZAF,North West,Not Capital,549575,False,Medium
Amrāvati,20.9258,77.7647,India,IND,Mahārāshtra,Not Capital,549370,False,Medium
Des Moines,41.5725,-93.6105,United States,USA,Iowa,admin,548926,False,Medium
Lisbon,38.7253,-9.15,Portugal,PRT,Lisboa,primary,548703,False,Medium
Yanji,42.9,129.5,China,CHN,Jilin,minor,548700,False,Medium
Huanghua,38.372,117.33,China,CHN,Hebei,minor,548507,False,Medium
Al Ḩudaydah,14.8022,42.9511,Yemen,YEM,Al Ḩudaydah,admin,548433,False,Medium
Anyang,37.3833,126.9333,"Korea, South",KOR,Gyeonggi,Not Capital,548372,False,Medium
The Hague,52.08,4.31,Netherlands,NLD,Zuid-Holland,primary,548320,False,Medium
Andijon,40.7833,72.3333,Uzbekistan,UZB,Andijon,admin,547800,False,Medium
Manchester,53.479,-2.2452,United Kingdom,GBR,Manchester,Not Capital,547627,False,Medium
Nellore,14.45,79.99,India,IND,Andhra Pradesh,Not Capital,547621,False,Medium
